{"version": 0.6, "generator": "Overpass API 0.7.62.1 084b4234", "osm3s": {"timestamp_osm_base": "2024-11-11T16:17:30Z", "copyright": "The data included in this document is from www.openstreetmap.org. The data is made available under ODbL."}, "elements": [{"type": "node", "id": 1686033918, "lat": 49.8096836, "lon": 24.0741562}, {"type": "node", "id": 1686033920, "lat": 49.8096882, "lon": 24.0746721}, {"type": "node", "id": 1686033922, "lat": 49.8097345, "lon": 24.0739279}, {"type": "node", "id": 1686033923, "lat": 49.8097366, "lon": 24.074155}, {"type": "node", "id": 1686033924, "lat": 49.8098982, "lon": 24.0739244}, {"type": "node", "id": 1686033925, "lat": 49.8099048, "lon": 24.0746674}, {"type": "node", "id": 2323095264, "lat": 49.7953235, "lon": 24.0585833, "tags": {"brand": "Sport Life", "brand:wikidata": "Q56356180", "leisure": "fitness_centre", "name": "Sport Life", "name:uk": "Sport Life", "opening_hours": "Mo-Fr 07:00-23:00; Sa,Su 09:00-22:00", "sport": "swimming", "website": "https://www.sportlife.ua/", "wheelchair": "yes"}}, {"type": "node", "id": 3389209821, "lat": 49.8098999, "lon": 24.0741134}, {"type": "node", "id": 3529262866, "lat": 49.8322471, "lon": 23.9963422, "tags": {"brand": "Sport Life", "brand:wikidata": "Q56356180", "leisure": "fitness_centre", "name": "Sport Life", "opening_hours": "Mo-Fr 07:00-22:00; Sa,Su 09:00-21:00"}}, {"type": "node", "id": 4271280260, "lat": 49.8136835, "lon": 23.9855549, "tags": {"leisure": "fitness_centre", "name": "Premium", "name:uk": "Premium", "opening_hours": "Mo-Fr 08:00-22:00; Sa 08:00-17:00"}}, {"type": "node", "id": 4278921965, "lat": 49.837236, "lon": 24.0115224, "tags": {"email": "studiofigura.lviv@gmail.com", "leisure": "fitness_centre", "name": "\u0421\u0442\u0443\u0434\u0456\u043e \u0424\u0456\u0433\u0443\u0440\u0430", "name:en": "Studio Figura", "name:uk": "\u0421\u0442\u0443\u0434\u0456\u043e \u0424\u0456\u0433\u0443\u0440\u0430", "phone": "+380 67 915 7711", "shop": "beauty", "sport": "fitness", "website": "http://studio-figura.lviv.ua"}}, {"type": "node", "id": 4318900789, "lat": 49.8330008, "lon": 23.9672051, "tags": {"leisure": "fitness_centre", "name": "Intersport", "name:uk": "\u0406\u043d\u0442\u0435\u0440\u0441\u043f\u043e\u0440\u0442"}}, {"type": "node", "id": 4413673293, "lat": 49.8674888, "lon": 24.0134826, "tags": {"leisure": "fitness_centre", "name": "\u041a\u0440\u0438\u0441\u0442\u0430\u043b \u0444\u0456\u0442\u043d\u0435\u0441", "name:uk": "\u041a\u0440\u0438\u0441\u0442\u0430\u043b \u0444\u0456\u0442\u043d\u0435\u0441"}}, {"type": "node", "id": 4467007489, "lat": 49.842355, "lon": 24.0018365, "tags": {"internet_access": "wlan", "leisure": "fitness_centre", "name": "\u0424\u043e\u0440\u0435\u0432\u0435\u0440", "name:en": "Forever", "name:uk": "\u0424\u043e\u0440\u0435\u0432\u0435\u0440", "opening_hours": "24/7", "phone": "+380 322 39 5539", "sport": "fitness", "website": "https://fitness.lviv.ua/"}}, {"type": "node", "id": 4488985889, "lat": 49.8348453, "lon": 24.0114446, "tags": {"leisure": "fitness_centre", "name": "\u041a\u0456\u0432\u0456 \u0424\u0456\u0442\u043d\u0435\u0441", "name:uk": "\u041a\u0456\u0432\u0456 \u0424\u0456\u0442\u043d\u0435\u0441"}}, {"type": "node", "id": 4530354589, "lat": 49.8153678, "lon": 24.0791888, "tags": {"addr:housenumber": "87", "addr:street": "\u041f\u0430\u0441\u0456\u0447\u043d\u0430 \u0432\u0443\u043b\u0438\u0446\u044f", "contact:mobile": "+380 93 014 6018", "internet_access": "wlan", "leisure": "fitness_centre", "name": "\u0411\u0430\u0441\u0435\u0439\u043d \"\u0412\u043e\u0434\u0430\u043d\"", "name:ru": "\u0411\u0430\u0441\u0441\u0435\u0439\u043d \"\u0412\u043e\u0434\u0430\u043d\"", "name:uk": "\u0411\u0430\u0441\u0435\u0439\u043d \"\u0412\u043e\u0434\u0430\u043d\"", "opening_hours": "Mo-Su 08:00-21:00", "phone": "+380 68 617 5494", "sport": "swimming", "website": "https://vodan.lviv.ua/"}}, {"type": "node", "id": 4607553689, "lat": 49.8173408, "lon": 24.0717335, "tags": {"leisure": "fitness_centre", "name": "\u0424\u0456\u0442\u043d\u0435\u0441 \u043a\u043b\u0443\u0431 \u041b\u0456\u0433\u0430", "name:uk": "\u0424\u0456\u0442\u043d\u0435\u0441 \u043a\u043b\u0443\u0431 \u041b\u0456\u0433\u0430", "opening_hours": "Mo-Sa 07:00-23:00; Su 09:00-21:00"}}, {"type": "node", "id": 4663233044, "lat": 49.8424506, "lon": 24.0217384, "tags": {"addr:housenumber": "5", "addr:street": "\u0432\u0443\u043b\u0438\u0446\u044f \u041c\u043e\u0434\u0435\u0441\u0442\u0430 \u041c\u0435\u043d\u0446\u0438\u043d\u0441\u044c\u043a\u043e\u0433\u043e", "leisure": "fitness_centre", "name": "\u0421\u0442\u0443\u0434\u0456\u044f \u0439\u043e\u0433\u0438", "name:en": "Yoga studio", "name:uk": "\u0421\u0442\u0443\u0434\u0456\u044f \u0439\u043e\u0433\u0438"}}, {"type": "node", "id": 4665021689, "lat": 49.809657, "lon": 23.971031, "tags": {"addr:housenumber": "36", "addr:street": "\u0429\u0438\u0440\u0435\u0446\u044c\u043a\u0430 \u0432\u0443\u043b\u0438\u0446\u044f", "email": "trystyhii@gmail.com", "leisure": "fitness_centre", "name": "\u041e\u0437\u0434\u043e\u0440\u043e\u0432\u0447\u0438\u0439 \u0446\u0435\u043d\u0442\u0440 \"\u0422\u0440\u0438 \u0441\u0442\u0438\u0445\u0456\u0457\"", "name:en": "\"Three elements\" Spa, pool, fitness and workout centre", "name:uk": "\u041e\u0437\u0434\u043e\u0440\u043e\u0432\u0447\u0438\u0439 \u0446\u0435\u043d\u0442\u0440 \"\u0422\u0440\u0438 \u0441\u0442\u0438\u0445\u0456\u0457\"", "opening_hours": "Mo-Su 08:00-22:00", "phone": "+380 322 95 9163", "website": "https://trystyhii.com.ua/"}}, {"type": "node", "id": 4710063323, "lat": 49.8339434, "lon": 24.0195501, "tags": {"leisure": "fitness_centre", "name": "\u0414\u0456\u043c \u0439\u043e\u0433\u0438", "name:uk": "\u0414\u0456\u043c \u0439\u043e\u0433\u0438", "sport": "yoga"}}, {"type": "node", "id": 4735684623, "lat": 49.8419801, "lon": 24.103853, "tags": {"leisure": "fitness_centre", "name": "\u0422\u0440\u0435\u043d\u0430\u0436\u0435\u0440\u043d\u0438\u0439 \u0437\u0430\u043b", "name:uk": "\u0422\u0440\u0435\u043d\u0430\u0436\u0435\u0440\u043d\u0438\u0439 \u0437\u0430\u043b"}}, {"type": "node", "id": 4737633231, "lat": 49.835872, "lon": 24.0387041, "tags": {"leisure": "fitness_centre", "name": "\u0424\u0456\u0442\u043d\u0435\u0441-\u043a\u043b\u0443\u0431 \u0410\u0439\u0441\u0435\u0434\u043e\u0440\u0430", "name:uk": "\u0424\u0456\u0442\u043d\u0435\u0441-\u043a\u043b\u0443\u0431 \u0410\u0439\u0441\u0435\u0434\u043e\u0440\u0430"}}, {"type": "node", "id": 4756833865, "lat": 49.8105802, "lon": 24.0036361, "tags": {"leisure": "fitness_centre", "name": "\u0410\u0442\u043b\u0430\u043d\u0442\u0438\u043a", "name:uk": "\u0410\u0442\u043b\u0430\u043d\u0442\u0438\u043a"}}, {"type": "node", "id": 4854313095, "lat": 49.827352, "lon": 24.04443, "tags": {"leisure": "fitness_centre", "name": "Fitness club Vasil gym", "name:en": "\u0424\u0456\u0442\u043d\u0435\u0441-\u043a\u043b\u0443\u0431 Vasil gym", "name:ru": "\u0424\u0438\u0442\u043d\u0435\u0441-\u043a\u043b\u0443\u0431 Vasil gym", "name:uk": "Fitness club Vasil gym", "opening_hours": "Mo-Su 09:00-22:00"}}, {"type": "node", "id": 5629092404, "lat": 49.8113131, "lon": 23.9754215, "tags": {"leisure": "fitness_centre", "name": "Dance & fitness studio", "name:uk": "Dance & fitness studio"}}, {"type": "node", "id": 6052510554, "lat": 49.8486752, "lon": 23.9698588, "tags": {"leisure": "fitness_centre", "name": "\u0424\u0456\u0442\u043d\u0435\u0441 \u043a\u043b\u0443\u0431 \u041b\u0456\u0433\u0430", "name:uk": "\u0424\u0456\u0442\u043d\u0435\u0441 \u043a\u043b\u0443\u0431 \u041b\u0456\u0433\u0430"}}, {"type": "node", "id": 6174618666, "lat": 49.818043, "lon": 24.0030563, "tags": {"leisure": "fitness_centre", "name": "Premium Gym", "name:uk": "Premium Gym", "opening_hours": "Mo-Sa 08:00-22:00; Su 09:00-15:00"}}, {"type": "node", "id": 6482059585, "lat": 49.8328158, "lon": 23.9674176, "tags": {"internet_access": "wlan", "leisure": "fitness_centre", "name": "\u0411\u0430\u0442\u0443\u0442\u043d\u0438\u0439 \u0437\u0430\u043b \"UP\"", "name:uk": "\u0411\u0430\u0442\u0443\u0442\u043d\u0438\u0439 \u0437\u0430\u043b \"UP\"", "opening_hours": "Mo-Su 09:00-21:00", "phone": "+380 73 181 3790;+380 98 807 9989"}}, {"type": "node", "id": 6793070587, "lat": 49.8485069, "lon": 23.9669272, "tags": {"description": "\u0419\u043e\u0433\u0430, \u043f\u0456\u043b\u0430\u0442\u0435\u0441, \u043a\u0430\u043b\u043b\u0430\u043d\u0435\u0442\u0438\u043a\u0430, \u0430\u0435\u0440\u043e\u0431\u0456\u043a\u0430, \u0437\u0443\u043c\u0431\u0430, ...", "leisure": "fitness_centre", "name": "\u042e\u043d\u0456\u0442\u0456", "name:en": "Unity", "name:uk": "\u042e\u043d\u0456\u0442\u0456", "opening_hours": "Mo-Sa 09:00-18:00", "phone": "+380 67 674 5636;+380 63 679 8079", "website": "https://www.unity.lviv.ua"}}, {"type": "node", "id": 6960002285, "lat": 49.864151, "lon": 24.0450821, "tags": {"addr:street": "\u041f\u0440\u043e\u043c\u0438\u0441\u043b\u043e\u0432\u0430 \u0432\u0443\u043b\u0438\u0446\u044f", "leisure": "fitness_centre", "opening_hours": "Mo-Su 07:00-22:00"}}, {"type": "node", "id": 6977881657, "lat": 49.8279125, "lon": 23.9888271, "tags": {"leisure": "fitness_centre"}}, {"type": "node", "id": 6979559685, "lat": 49.8267723, "lon": 24.0398004, "tags": {"leisure": "fitness_centre", "opening_hours": "Mo-Su 09:00-23:00"}}, {"type": "node", "id": 7038293572, "lat": 49.8263462, "lon": 23.9895193, "tags": {"leisure": "fitness_centre", "name": "\u0421\u043f\u0430\u0440\u0442\u0430\u043a", "name:uk": "\u0421\u043f\u0430\u0440\u0442\u0430\u043a"}}, {"type": "node", "id": 7368733572, "lat": 49.8393153, "lon": 23.9724603, "tags": {"description": "\u0421\u043f\u043e\u0440\u0442\u0438\u0432\u043d\u043e-\u0442\u0430\u043d\u0446\u044e\u0432\u0430\u043b\u044c\u043d\u0438\u0439 \u043a\u043b\u0443\u0431.", "leisure": "fitness_centre", "level": "2", "name": "\u0410\u043c\u0430\u0442\u043e\u0440", "name:uk": "\u0410\u043c\u0430\u0442\u043e\u0440", "office": "company", "phone": "+380 97 933 1453;+380 96 172 0882"}}, {"type": "node", "id": 7368733573, "lat": 49.8393049, "lon": 23.9722605, "tags": {"description": "\u0421\u0442\u0443\u0434\u0456\u044f \u0441\u0443\u0447\u0430\u0441\u043d\u043e\u0433\u043e \u0442\u0430\u043d\u0446\u044e.", "leisure": "fitness_centre", "level": "1", "name": "Impulse Dance Studio", "name:uk": "Impulse Dance Studio", "office": "company", "phone": "+380 96 953 0166"}}, {"type": "node", "id": 7710396885, "lat": 49.8562559, "lon": 24.0176299, "tags": {"leisure": "fitness_centre", "name": "\u041a\u0456\u0432\u0456\u0424\u0456\u0442\u043d\u0435\u0441", "name:uk": "\u041a\u0456\u0432\u0456\u0424\u0456\u0442\u043d\u0435\u0441", "survey:date": "2020-07-13"}}, {"type": "node", "id": 7831822091, "lat": 49.8131555, "lon": 24.0336209, "tags": {"addr:housenumber": "24", "addr:postcode": "79034", "addr:street": "\u0432\u0443\u043b\u0438\u0446\u044f \u041f\u0430\u043d\u0430\u0441\u0430 \u041c\u0438\u0440\u043d\u043e\u0433\u043e", "email": "fizmat.lviv@gmail.com", "leisure": "fitness_centre", "name": "Fizmat", "name:uk": "Fizmat", "opening_hours": "Mo-Sa 08:00-22:00; Su 09:00-16:00", "phone": "+380 96 382 6536", "sport": "fitness;yoga", "website": "https://lviv.fizmat.me"}}, {"type": "node", "id": 7861453087, "lat": 49.8651772, "lon": 24.0159494, "tags": {"leisure": "fitness_centre", "name": "FitCurves", "name:uk": "FitCurves", "survey:date": "2020-08-31"}}, {"type": "node", "id": 9465746931, "lat": 49.7910259, "lon": 24.0728232, "tags": {"leisure": "fitness_centre", "name": "\u041a\u043e\u043b\u0456\u0437\u0435\u0439", "name:uk": "\u041a\u043e\u043b\u0456\u0437\u0435\u0439", "opening_hours": "Mo-Fr 07:00-23:00; Sa,Su 09:00-22:00"}}, {"type": "node", "id": 9699712017, "lat": 49.8583669, "lon": 24.0198202, "tags": {"check_date": "2024-05-01", "internet_access": "wlan", "internet_access:fee": "customers", "leisure": "fitness_centre", "level": "-1", "name": "FitMe", "name:uk": "FitMe", "opening_hours": "Mo-Fr 8:00-21:00; Sa 9:00-18:00; Su 10:00-15:00", "payment:cash": "yes", "payment:mastercard": "yes", "payment:visa": "yes", "sport": "fitness", "survey:date": "2022-04-28", "website": "https://fitness-club.lviv.ua/"}}, {"type": "node", "id": 9735598946, "lat": 49.8224816, "lon": 23.984479, "tags": {"leisure": "fitness_centre", "name": "Pride Gym", "name:uk": "Pride Gym"}}, {"type": "node", "id": 9759793886, "lat": 49.8291871, "lon": 23.9712607, "tags": {"leisure": "fitness_centre", "name": "Pride GYM", "name:uk": "Pride GYM"}}, {"type": "node", "id": 9791298369, "lat": 49.807533, "lon": 23.9786874, "tags": {"leisure": "fitness_centre", "level": "3", "name": "King", "name:uk": "King"}}, {"type": "node", "id": 9890244269, "lat": 49.8112292, "lon": 24.0378284, "tags": {"addr:housenumber": "24", "addr:street": "\u041a\u0430\u043c\u02bc\u044f\u043d\u0435\u0446\u044c\u043a\u0430 \u0432\u0443\u043b\u0438\u0446\u044f", "leisure": "fitness_centre", "name": "Asgard homegym", "name:uk": "Asgard homegym", "sport": "fitness;gymnastics"}}, {"type": "node", "id": 10221184014, "lat": 49.826811, "lon": 24.0217077, "tags": {"leisure": "fitness_centre", "name": "\u041f\u0430\u0440\u043a \u0439\u043e\u0433\u0438", "name:uk": "\u041f\u0430\u0440\u043a \u0439\u043e\u0433\u0438", "sport": "yoga"}}, {"type": "node", "id": 10275270081, "lat": 49.849796, "lon": 23.9993676, "tags": {"addr:housenumber": "120", "addr:postcode": "79039", "addr:street": "\u0432\u0443\u043b\u0438\u0446\u044f \u0422\u0430\u0440\u0430\u0441\u0430 \u0428\u0435\u0432\u0447\u0435\u043d\u043a\u0430", "leisure": "fitness_centre", "level": "2", "name": "Smartass", "name:en": "Smartass", "phone": "+380631897087", "sport": "fitness", "website": "https://smartass.ua/lviv"}}, {"type": "node", "id": 11101162632, "lat": 49.8704273, "lon": 24.0236164, "tags": {"brand": "Sport Life", "brand:wikidata": "Q56356180", "leisure": "fitness_centre", "name": "Sport Life", "name:uk": "Sport Life", "opening_hours": "Mo-Fr 07:00-23:00; Sa,Su 09:00-22:00", "website": "https://www.sportlife.ua/", "wheelchair": "yes"}}, {"type": "node", "id": 11159493592, "lat": 49.8315786, "lon": 24.0135128, "tags": {"leisure": "fitness_centre", "name": "\u041f\u0456\u043b\u0430\u0442\u0435\u0441 \u041b\u044c\u0432\u0456\u0432", "name:uk": "\u041f\u0456\u043b\u0430\u0442\u0435\u0441 \u041b\u044c\u0432\u0456\u0432", "sport": "pilates", "website": "http://pilateslviv.com"}}, {"type": "node", "id": 11357256380, "lat": 49.8026404, "lon": 24.0204765, "tags": {"leisure": "fitness_centre", "name": "\u0428\u0443\u043b\u0430\u043a \u0434\u0436\u0438\u043c", "name:en": "Shulak Gym", "name:uk": "\u0428\u0443\u043b\u0430\u043a \u0434\u0436\u0438\u043c", "opening_hours": "Mo-Sa 08:00-21:30", "phone": "+38 098 514 90 29; +38 063 612 93 10"}}, {"type": "node", "id": 11514916729, "lat": 49.8070579, "lon": 24.019348, "tags": {"leisure": "fitness_centre", "name": "Toral Fitness", "sport": "gymnastics"}}, {"type": "node", "id": 11514916741, "lat": 49.8055067, "lon": 24.0192119, "tags": {"leisure": "fitness_centre", "name": "\u041e\u043b\u0456\u043c\u043f", "name:en": "Olymp", "name:uk": "\u041e\u043b\u0456\u043c\u043f", "opening_hours": "Mo-Sa 07:00-23:00; Su 09:00-19:00", "phone": "(067) 754 50 05", "sport": "gymnastics"}}, {"type": "node", "id": 11626904241, "lat": 49.8119197, "lon": 24.0369243, "tags": {"addr:housenumber": "21\u0431", "addr:street": "\u0422\u0435\u0440\u043d\u043e\u043f\u0456\u043b\u044c\u0441\u044c\u043a\u0430 \u0432\u0443\u043b\u0438\u0446\u044f", "contact:facebook": "https://www.facebook.com/profile.php?id=100076605791898", "leisure": "fitness_centre", "name": "\u0424\u0456\u0442\u043d\u0435\u0441 \u0442\u0430 \u043f\u043e\u043b\u0434\u0435\u043d\u0441 \u0441\u0442\u0443\u0434\u0456\u044f LaReina", "name:en": "Poledance & fitness mix studio LaReina", "name:uk": "\u041b\u0430 \u0420\u0435\u0439\u043d\u0430 \u043f\u043e\u043b\u0434\u0435\u043d\u0441", "opening_hours": "Mo-Sa 10:00-19:00", "phone": "+38 073 1373437", "website": "https://lareina.com.ua/", "wheelchair": "yes"}}, {"type": "node", "id": 12265020457, "lat": 49.8427209, "lon": 24.0000888, "tags": {"leisure": "fitness_centre", "name": "FitMe", "opening_hours": "Mo-Fr 08:00-22:00; Sa 09:00-18:00; Su 10:00-15:00", "phone": "+3800631432623", "website": "https://mssg.me/fitme.ua"}}, {"type": "way", "id": 156344733, "nodes": [1686033924, 1686033922, 1686033923, 1686033918, 1686033920, 1686033925, 3389209821, 1686033924], "tags": {"addr:housenumber": "7", "addr:postcode": "79035", "addr:street": "\u0432\u0443\u043b\u0438\u0446\u044f \u041c\u0438\u043a\u043e\u043b\u0438 \u041f\u0438\u043c\u043e\u043d\u0435\u043d\u043a\u0430", "building": "yes", "building:levels": "2", "leisure": "fitness_centre", "name": "\u0490\u043e\u0443\u0425\u0430\u0440\u0434", "name:en": "GoHard", "name:uk": "\u0490\u043e\u0443\u0425\u0430\u0440\u0434"}}]}