{"version": 0.6, "generator": "Overpass API 0.7.62.1 084b4234", "osm3s": {"timestamp_osm_base": "2024-11-11T02:24:14Z", "copyright": "The data included in this document is from www.openstreetmap.org. The data is made available under ODbL."}, "elements": [{"type": "node", "id": 3001851835, "lat": 48.1834501, "lon": 26.5893887}, {"type": "node", "id": 3001851836, "lat": 48.1833411, "lon": 26.5896242}, {"type": "node", "id": 3001851837, "lat": 48.1831729, "lon": 26.5894524}, {"type": "node", "id": 3001851838, "lat": 48.1832818, "lon": 26.589215}, {"type": "node", "id": 3002224420, "lat": 48.1872766, "lon": 26.5920672, "tags": {"addr:city": "Darabani", "addr:housenumber": "49", "addr:postcode": "715100", "addr:street": "Strada 1 Decembrie 1918", "amenity": "library", "email": "darabani@solascriptura.ro", "name": "Sola Scriptura", "opening_hours": "Mo-Th 08:30-12:00; 12:30-16:30 Fr 08:00 - 13:00", "phone": "0231631387"}}, {"type": "node", "id": 4589074408, "lat": 48.2174836, "lon": 26.2634775}, {"type": "node", "id": 4589074409, "lat": 48.2174281, "lon": 26.263748}, {"type": "node", "id": 4589074410, "lat": 48.2171792, "lon": 26.263633}, {"type": "node", "id": 4589074411, "lat": 48.2172347, "lon": 26.2633624}, {"type": "node", "id": 4608657120, "lat": 48.2172331, "lon": 26.2686528}, {"type": "node", "id": 4608657121, "lat": 48.217187, "lon": 26.2686356}, {"type": "node", "id": 4608657122, "lat": 48.2171979, "lon": 26.2688643}, {"type": "node", "id": 4608657123, "lat": 48.2170911, "lon": 26.2688242}, {"type": "node", "id": 4608657124, "lat": 48.2171999, "lon": 26.2685582}, {"type": "node", "id": 4608657125, "lat": 48.2171392, "lon": 26.2685354}, {"type": "node", "id": 6129200638, "lat": 48.146311, "lon": 26.2695116, "tags": {"amenity": "library", "name": "\u0428\u043a\u0456\u043b\u044c\u043d\u0430 \u0431\u0456\u0431\u043b\u0456\u043e\u0442\u0435\u043a\u0430", "name:ro": "Biblioteca \u0219colii", "name:ru": "\u0428\u043a\u043e\u043b\u044c\u043d\u0430\u044f \u0431\u0438\u0431\u043b\u0438\u043e\u0442\u0435\u043a\u0430", "name:uk": "\u0428\u043a\u0456\u043b\u044c\u043d\u0430 \u0431\u0456\u0431\u043b\u0456\u043e\u0442\u0435\u043a\u0430"}}, {"type": "node", "id": 6129200650, "lat": 48.147234, "lon": 26.2599284, "tags": {"amenity": "library"}}, {"type": "way", "id": 296395441, "nodes": [3001851835, 3001851836, 3001851837, 3001851838, 3001851835], "tags": {"addr:city": "Darabani", "addr:housenumber": "1", "addr:postcode": "715100", "addr:street": "Strada Lucian Vale", "amenity": "library", "building": "yes", "name": "Biblioteca Or\u0103\u0219eneasc\u0103"}}, {"type": "way", "id": 463654258, "nodes": [4589074408, 4589074409, 4589074410, 4589074411, 4589074408], "tags": {"addr:housenumber": "55", "addr:street": "\u0426\u0435\u043d\u0442\u0440\u0430\u043b\u044c\u043d\u0430 \u0432\u0443\u043b\u0438\u0446\u044f", "amenity": "library", "building": "yes", "name": "\u0426\u0435\u043d\u0442\u0440\u0430\u043b\u044c\u043d\u0430 \u0431\u0456\u0431\u043b\u0456\u043e\u0442\u0435\u043a\u0430", "name:ro": "Biblioteca Central\u0103", "name:ru": "\u0426\u0435\u043d\u0442\u0440\u0430\u043b\u044c\u043d\u0430\u044f \u0431\u0438\u0431\u043b\u0438\u043e\u0442\u0435\u043a\u0430", "name:uk": "\u0426\u0435\u043d\u0442\u0440\u0430\u043b\u044c\u043d\u0430 \u0431\u0456\u0431\u043b\u0456\u043e\u0442\u0435\u043a\u0430"}}, {"type": "way", "id": 465969462, "nodes": [4608657125, 4608657123, 4608657122, 4608657120, 4608657121, 4608657124, 4608657125], "tags": {"addr:housenumber": "8", "addr:street": "\u0432\u0443\u043b\u0438\u0446\u044f 28 \u0427\u0435\u0440\u0432\u043d\u044f", "amenity": "library", "name": "\u0414\u0438\u0442\u044f\u0447\u0430 \u0431\u0456\u0431\u043b\u0456\u043e\u0442\u0435\u043a\u0430", "name:ru": "\u0414\u0435\u0442\u0441\u043a\u0430\u044f \u0431\u0438\u0431\u043b\u0438\u043e\u0442\u0435\u043a\u0430", "name:uk": "\u0414\u0438\u0442\u044f\u0447\u0430 \u0431\u0456\u0431\u043b\u0456\u043e\u0442\u0435\u043a\u0430"}}]}