{"version": 0.6, "generator": "Overpass API 0.7.62.1 084b4234", "osm3s": {"timestamp_osm_base": "2024-11-11T16:09:25Z", "copyright": "The data included in this document is from www.openstreetmap.org. The data is made available under ODbL."}, "elements": [{"type": "node", "id": 257913739, "lat": 50.5235143, "lon": 30.4906072}, {"type": "node", "id": 257913740, "lat": 50.5235137, "lon": 30.4909039}, {"type": "node", "id": 257913741, "lat": 50.5233315, "lon": 30.4909029}, {"type": "node", "id": 257913743, "lat": 50.5233322, "lon": 30.4906062}, {"type": "node", "id": 870125304, "lat": 50.4527515, "lon": 30.3876898}, {"type": "node", "id": 870125327, "lat": 50.452329, "lon": 30.3877396}, {"type": "node", "id": 870125350, "lat": 50.4527625, "lon": 30.3879198}, {"type": "node", "id": 870125389, "lat": 50.45234, "lon": 30.3879695}, {"type": "node", "id": 1282779011, "lat": 50.4256813, "lon": 30.5062596}, {"type": "node", "id": 1282829501, "lat": 50.4256468, "lon": 30.5061721}, {"type": "node", "id": 1282829508, "lat": 50.4254917, "lon": 30.5057679}, {"type": "node", "id": 1282829519, "lat": 50.4256171, "lon": 30.5060942}, {"type": "node", "id": 1282829535, "lat": 50.4256867, "lon": 30.5055811}, {"type": "node", "id": 1282901212, "lat": 50.425876, "lon": 30.506069}, {"type": "node", "id": 1386257343, "lat": 50.422982, "lon": 30.3804337, "tags": {"leisure": "fitness_centre", "name": "GymFit", "name:ru": "GymFit", "name:uk": "GymFit", "note": "\u0424\u0438\u0442\u043d\u0435\u0441 \u043a\u043b\u0443\u0431", "sport": "exercise;running;weightlifting"}}, {"type": "node", "id": 1415361777, "lat": 50.4154928, "lon": 30.4448869}, {"type": "node", "id": 1415361792, "lat": 50.4155715, "lon": 30.444606}, {"type": "node", "id": 1415361841, "lat": 50.4158711, "lon": 30.4451479}, {"type": "node", "id": 1415361845, "lat": 50.4159498, "lon": 30.4448671}, {"type": "node", "id": 1534232055, "lat": 50.433974, "lon": 30.5074474}, {"type": "node", "id": 1534232058, "lat": 50.4340276, "lon": 30.5071205}, {"type": "node", "id": 1534232061, "lat": 50.4341075, "lon": 30.5074999}, {"type": "node", "id": 1534232066, "lat": 50.434161, "lon": 30.5071761}, {"type": "node", "id": 1641827789, "lat": 50.4134364, "lon": 30.4671341, "tags": {"leisure": "fitness_centre", "name": "Fitness24", "name:uk": "Fitness24"}}, {"type": "node", "id": 1706674223, "lat": 50.411322, "lon": 30.6521593}, {"type": "node", "id": 1706674239, "lat": 50.4115945, "lon": 30.6529069}, {"type": "node", "id": 1706674244, "lat": 50.4117381, "lon": 30.6527352}, {"type": "node", "id": 1706674248, "lat": 50.4117825, "lon": 30.6530142}, {"type": "node", "id": 1706674253, "lat": 50.4117504, "lon": 30.6530292}, {"type": "node", "id": 1706674254, "lat": 50.411721, "lon": 30.6528318}, {"type": "node", "id": 1706674257, "lat": 50.4115193, "lon": 30.6519037}, {"type": "node", "id": 1706674261, "lat": 50.4115261, "lon": 30.65288}, {"type": "node", "id": 1706674263, "lat": 50.4115852, "lon": 30.652846}, {"type": "node", "id": 1706674266, "lat": 50.411321, "lon": 30.6520271}, {"type": "node", "id": 1706674273, "lat": 50.4113586, "lon": 30.652129}, {"type": "node", "id": 1759550348, "lat": 50.4549482, "lon": 30.5500257}, {"type": "node", "id": 1759550359, "lat": 50.4550632, "lon": 30.5502189}, {"type": "node", "id": 1759550373, "lat": 50.4551774, "lon": 30.5500456}, {"type": "node", "id": 1759550377, "lat": 50.455177, "lon": 30.5496727}, {"type": "node", "id": 1759550382, "lat": 50.455249, "lon": 30.5498259}, {"type": "node", "id": 1759550383, "lat": 50.4552598, "lon": 30.5498109}, {"type": "node", "id": 1759550384, "lat": 50.4552793, "lon": 30.5498807}, {"type": "node", "id": 1922332245, "lat": 50.4251254, "lon": 30.506679, "tags": {"addr:housenumber": "2/1", "addr:street": "\u0432\u0443\u043b\u0438\u0446\u044f \u041c\u0438\u043a\u043e\u043b\u0438 \u0413\u0440\u0456\u043d\u0447\u0435\u043d\u043a\u0430", "brand": "Sport Life", "leisure": "fitness_centre", "name": "Sport Life \u041f\u0440\u043e\u0442\u0430\u0441\u0456\u0432 \u042f\u0440", "name:en": "Sport Life Protasiv Yar", "name:ru": "\u0421\u043f\u043e\u0440\u0442 \u041b\u0430\u0439\u0444 \u041f\u0440\u043e\u0442\u0430\u0441\u043e\u0432 \u042f\u0440", "name:uk": "\u0421\u043f\u043e\u0440\u0442 \u041b\u0430\u0439\u0444 \u041f\u0440\u043e\u0442\u0430\u0441\u0456\u0432 \u042f\u0440", "opening_hours": "Mo-Fr 07:00-23:00; Sa,Su 09:00-22:00", "website": "https://www.sportlife.ua/uk/clubs/kiev/protasovyar", "wheelchair": "no"}}, {"type": "node", "id": 1985776099, "lat": 50.476408, "lon": 30.6244777, "tags": {"addr:housenumber": "5", "addr:street": "\u0432\u0443\u043b\u0438\u0446\u044f \u041e\u0440\u0435\u0441\u0442\u0430 \u041b\u0435\u0432\u0438\u0446\u044c\u043a\u043e\u0433\u043e", "brand": "Sport Life", "leisure": "fitness_centre", "name": "\u0421\u043f\u043e\u0440\u0442 \u041b\u0430\u0439\u0444 \u041b\u0456\u0441\u043e\u0432\u0438\u0439", "name:en": "Sport Life Lisovyi", "name:ru": "\u0421\u043f\u043e\u0440\u0442 \u041b\u0430\u0439\u0444 \u041b\u0435\u0441\u043d\u043e\u0439", "name:uk": "\u0421\u043f\u043e\u0440\u0442 \u041b\u0430\u0439\u0444 \u041b\u0456\u0441\u043e\u0432\u0438\u0439", "opening_hours": "Mo-Fr 07:00-23:00; Sa,Su 09:00-22:00", "website": "https://www.sportlife.ua/uk/clubs/kiev/lesnoy"}}, {"type": "node", "id": 2099063708, "lat": 50.4676616, "lon": 30.6293355, "tags": {"leisure": "fitness_centre", "name": "FitCurve", "name:uk": "FitCurve", "opening_hours": "Mo-Th 08:00-13:00,16:00-21:00; Fr 08:00-13:00,16:00-20:00; Sa 10:00-14:00", "wheelchair": "no"}}, {"type": "node", "id": 2126008011, "lat": 50.4311757, "lon": 30.4876762, "tags": {"addr:housenumber": "16-\u0410", "addr:street": "\u041c\u043e\u043a\u0440\u0430 \u0432\u0443\u043b\u0438\u0446\u044f", "brand": "Sport Life", "leisure": "fitness_centre", "name": "Sport Life \u0421\u043e\u043b\u043e\u043c'\u044f\u043d\u043a\u0430", "name:en": "Sport Life Solomianka", "name:ru": "\u0421\u043f\u043e\u0440\u0442 \u041b\u0430\u0439\u0444 \u0421\u043e\u043b\u043e\u043c\u0435\u043d\u043a\u0430", "name:uk": "\u0421\u043f\u043e\u0440\u0442 \u041b\u0430\u0439\u0444 \u0421\u043e\u043b\u043e\u043c'\u044f\u043d\u043a\u0430", "opening_hours": "Mo-Fr 07:00-23:00; Sa,Su 09:00-22:00", "phone": "+380 44 222 4222", "website": "https://www.sportlife.ua/uk/clubs/kiev/protasovyar"}}, {"type": "node", "id": 2317803403, "lat": 50.4323337, "lon": 30.5088401, "tags": {"contact:instagram": "grandprix.ua", "contact:phone": "+380 44 230 2000", "contact:website": "https://grand-prix.ua/", "leisure": "fitness_centre", "name": "Grand Prix", "name:uk": "Grand Prix", "sport": "badminton;tennis;soccer;pilates;aerobics;aqua-aerobics;yoga;fighting;dancing"}}, {"type": "node", "id": 2358309778, "lat": 50.3939015, "lon": 30.4944553, "tags": {"leisure": "fitness_centre", "name": "\u0421\u0442\u0443\u0434\u0456\u044f \u0444\u0456\u0442\u043d\u0435\u0441\u0443 \u0456 \u0442\u0430\u043d\u0446\u044e", "name:en": "Fitnesse and dance studio", "name:ru": "\u0421\u0442\u0443\u0434\u0438\u044f \u0444\u0438\u0442\u043d\u0435\u0441\u0430 \u0438 \u0442\u0430\u043d\u0446\u0430", "name:uk": "\u0421\u0442\u0443\u0434\u0456\u044f \u0444\u0456\u0442\u043d\u0435\u0441\u0443 \u0456 \u0442\u0430\u043d\u0446\u044e"}}, {"type": "node", "id": 2883164776, "lat": 50.4291419, "lon": 30.5937166, "tags": {"fee": "yes", "leisure": "fitness_centre", "level": "3", "name": "Energym", "name:uk": "Energym", "website": "https://energym-sport.com/"}}, {"type": "node", "id": 2961341694, "lat": 50.4390624, "lon": 30.4414632, "tags": {"addr:housenumber": "5", "addr:street": "\u0432\u0443\u043b\u0438\u0446\u044f \u041c\u0438\u043a\u043e\u043b\u0438 \u0413\u043e\u043b\u0435\u0433\u043e", "branch": "\u041a\u0430\u0440\u0430\u0432\u0430\u0454\u0432\u0456 \u0414\u0430\u0447\u0456", "branch:en": "Karavaievi Dachi", "branch:ru": "\u041a\u0430\u0440\u0430\u0432\u0430\u0435\u0432\u044b \u0414\u0430\u0447\u0438", "branch:uk": "\u041a\u0430\u0440\u0430\u0432\u0430\u0454\u0432\u0456 \u0414\u0430\u0447\u0456", "brand": "Sport Life", "brand:wikidata": "Q56356180", "contact:phone": "+380 44 593 9575", "contact:website": "https://sportlife.ua/uk/clubs/kiev/karavayevi-dachi/", "leisure": "fitness_centre", "name": "Sport Life", "name:en": "Sport Life", "name:uk": "Sport Life", "opening_hours": "Mo-Fr 08:00-22:00; Sa,Su 09:00-20:00", "operator": "Sport Life"}}, {"type": "node", "id": 3137773347, "lat": 50.4377342, "lon": 30.4463825}, {"type": "node", "id": 3137773348, "lat": 50.4377719, "lon": 30.4462498}, {"type": "node", "id": 3137773349, "lat": 50.4378, "lon": 30.446536}, {"type": "node", "id": 3137773351, "lat": 50.4378254, "lon": 30.4464464}, {"type": "node", "id": 3137773356, "lat": 50.437997, "lon": 30.446674}, {"type": "node", "id": 3137773358, "lat": 50.4380601, "lon": 30.4464517}, {"type": "node", "id": 3217441650, "lat": 50.4292667, "lon": 30.445602, "tags": {"leisure": "fitness_centre", "name": "My Fit", "name:uk": "My Fit", "sport": "gymnastics", "website": "http://myfit.ua/fitclubs/ushinskogo28/"}}, {"type": "node", "id": 3567042569, "lat": 50.5010313, "lon": 30.4959313, "tags": {"internet_access": "wlan", "leisure": "fitness_centre", "name": "\u0421\u043f\u043e\u0440\u0442\u041b\u0435\u043d\u0434", "name:ru": "\u0421\u043f\u043e\u0440\u0442\u041b\u044d\u043d\u0434", "name:uk": "\u0421\u043f\u043e\u0440\u0442\u041b\u0435\u043d\u0434", "opening_hours": "Mo-Fr 09:00-23:00; Sa-Su 09:00-22:00", "phone": "+380 44 469 0607", "sport": "fitness", "website": "https://sportlandclub.com.ua/ru/clubs/obolon/"}}, {"type": "node", "id": 3579390217, "lat": 50.3860744, "lon": 30.4721278, "tags": {"check_date:opening_hours": "2024-10-10", "leisure": "fitness_centre", "name": "JustFit", "name:uk": "JustFit", "opening_hours": "Mo-Fr 09:00-22:00; Sa,Su 10:00-22:00"}}, {"type": "node", "id": 3704168825, "lat": 50.4468176, "lon": 30.4435496, "tags": {"addr:housenumber": "154", "addr:street": "\u0411\u043e\u0440\u0449\u0430\u0433\u0456\u0432\u0441\u044c\u043a\u0430 \u0432\u0443\u043b\u0438\u0446\u044f", "branch": "\u0406\u043d\u0434\u0443\u0441\u0442\u0440\u0456\u0430\u043b\u044c\u043d\u0438\u0439", "brand": "Sport Life", "brand:wikidata": "Q56356180", "leisure": "fitness_centre", "name": "Sport Life", "name:en": "Sport Life Industrialnyi", "name:ru": "\u0421\u043f\u043e\u0440\u0442 \u041b\u0430\u0439\u0444 \u0418\u043d\u0434\u0443\u0441\u0442\u0440\u0438\u0430\u043b\u044c\u043d\u044b\u0439", "name:uk": "\u0421\u043f\u043e\u0440\u0442 \u041b\u0430\u0439\u0444 \u0406\u043d\u0434\u0443\u0441\u0442\u0440\u0456\u0430\u043b\u044c\u043d\u0438\u0439", "opening_hours": "Mo-Fr 07:00-23:00; Sa,Su 09:00-22:00", "website": "https://www.sportlife.ua/uk/clubs/kiev/industrialniy"}}, {"type": "node", "id": 3724666037, "lat": 50.4882992, "lon": 30.4714214, "tags": {"addr:housenumber": "134-\u0410", "addr:street": "\u041a\u0438\u0440\u0438\u043b\u0456\u0432\u0441\u044c\u043a\u0430 \u0432\u0443\u043b\u0438\u0446\u044f", "brand": "Sport Life", "leisure": "fitness_centre", "name": "Sport Life \u041a\u0443\u0440\u0435\u043d\u0456\u0432\u043a\u0430", "name:en": "Sport Life Kurenivka", "name:ru": "\u0421\u043f\u043e\u0440\u0442 \u041b\u0430\u0439\u0444 \u041a\u0443\u0440\u0435\u043d\u0435\u0432\u043a\u0430", "name:uk": "\u0421\u043f\u043e\u0440\u0442 \u041b\u0430\u0439\u0444 \u041a\u0443\u0440\u0435\u043d\u0456\u0432\u043a\u0430", "opening_hours": "Mo-Fr 07:00-23:00; Sa,Su 09:00-22:00", "website": "https://www.sportlife.ua/uk/clubs/kiev/kurenevka"}}, {"type": "node", "id": 3724666038, "lat": 50.5162639, "lon": 30.4986564, "tags": {"addr:housenumber": "21-\u0411", "addr:street": "\u041e\u0431\u043e\u043b\u043e\u043d\u0441\u044c\u043a\u0438\u0439 \u043f\u0440\u043e\u0441\u043f\u0435\u043a\u0442", "branch": "\u0414\u0440\u0456\u043c", "branch:en": "Dream", "branch:ru": "\u0414\u0440\u0438\u043c", "brand": "Sport Life", "brand:wikidata": "Q56356180", "contact:website": "https://sportlife.ua/uk/clubs/kiev/dream/", "leisure": "fitness_centre", "name": "Sport Life", "name:en": "Sport Life", "name:uk": "Sport Life", "opening_hours": "Mo-Fr 07:00-22:00; Sa,Su 09:00-20:00"}}, {"type": "node", "id": 3823387006, "lat": 50.4527564, "lon": 30.3877931, "tags": {"access": "yes", "entrance": "yes", "wheelchair": "yes"}}, {"type": "node", "id": 4014620362, "lat": 50.4877562, "lon": 30.5073079, "tags": {"addr:housenumber": "20-\u0411", "addr:street": "\u043f\u0440\u043e\u0441\u043f\u0435\u043a\u0442 \u0421\u0442\u0435\u043f\u0430\u043d\u0430 \u0411\u0430\u043d\u0434\u0435\u0440\u0438", "branch": "\u041f\u043e\u0447\u0430\u0439\u043d\u0430", "branch:en": "Pochaina", "brand": "Sport Life", "brand:wikidata": "Q56356180", "check_date": "2023-11-07", "contact:website": "https://sportlife.ua/uk/clubs/kiev/pochaina/", "leisure": "fitness_centre", "level": "2", "name": "Sport Life", "name:en": "Sport Life", "name:uk": "Sport Life", "opening_hours": "Mo-Fr 08:00-22:00; Sa-Su 09:00-20:00"}}, {"type": "node", "id": 4084840389, "lat": 50.4341484, "lon": 30.5072503}, {"type": "node", "id": 4109980589, "lat": 50.421464, "lon": 30.553289, "tags": {"addr:housenumber": "13-15", "addr:street": "\u0411\u043e\u043b\u0441\u0443\u043d\u043e\u0432\u0441\u044c\u043a\u0430 \u0432\u0443\u043b\u0438\u0446\u044f", "branch": "IQ Business-Center", "brand": "Sport Life", "brand:wikidata": "Q56356180", "leisure": "fitness_centre", "name": "Sport Life", "name:en": "Sport Life", "name:uk": "Sport Life", "opening_hours": "Mo-Fr 08:00-22:00; Sa,Su 09:00-20:00", "website": "https://www.sportlife.ua/uk/clubs/kiev/druzhbynarodov"}}, {"type": "node", "id": 4219006337, "lat": 50.4683839, "lon": 30.462636}, {"type": "node", "id": 4219006339, "lat": 50.4684495, "lon": 30.4624946}, {"type": "node", "id": 4219006340, "lat": 50.4684513, "lon": 30.462713}, {"type": "node", "id": 4219006344, "lat": 50.4685168, "lon": 30.4625716}, {"type": "node", "id": 4250318691, "lat": 50.5276992, "lon": 30.5072308, "tags": {"addr:housenumber": "8", "addr:street": "\u041f\u0456\u0432\u043d\u0456\u0447\u043d\u0430 \u0432\u0443\u043b\u0438\u0446\u044f", "leisure": "fitness_centre", "name": "\u0421\u043f\u043e\u0440\u0442\u0437\u0430\u043b", "name:uk": "\u0421\u043f\u043e\u0440\u0442\u0437\u0430\u043b", "opening_hours": "Mo-Su 06:00-22:00"}}, {"type": "node", "id": 4262798492, "lat": 50.4416877, "lon": 30.5251425, "tags": {"addr:housenumber": "6", "addr:street": "\u0432\u0443\u043b\u0438\u0446\u044f \u0414\u0430\u0440\u0432\u0456\u043d\u0430", "email": "decadance-kiev@yandex.ua", "internet_access": "wlan", "leisure": "fitness_centre", "name": "\u0428\u043a\u043e\u043b\u0430 \u0442\u0430\u043d\u0446\u044e DecaDance", "name:ru": "\u0428\u043a\u043e\u043b\u0430 \u0442\u0430\u043d\u0446\u0430 DecaDance", "name:uk": "\u0428\u043a\u043e\u043b\u0430 \u0442\u0430\u043d\u0446\u044e DecaDance", "opening_hours": "Mo-Su 08:00-22:00", "phone": "+380 63 630 6699", "website": "www.decadance.kiev.ua"}}, {"type": "node", "id": 4266315638, "lat": 50.4474663, "lon": 30.5155263, "tags": {"addr:housenumber": "49-\u0410", "addr:street": "\u0412\u043e\u043b\u043e\u0434\u0438\u043c\u0438\u0440\u0441\u044c\u043a\u0430 \u0432\u0443\u043b\u0438\u0446\u044f", "leisure": "fitness_centre", "name": "FitCurves", "name:uk": "FitCurves", "opening_hours": "Mo-Fr 8:00-21:00; Sa 10:00-13:00", "phone": "+380 44 569 5646;+380 66 106 7830;+380 63 390 0925;+380 68 002 6660", "source": "Kaart Ground Survey 2017", "sport": "fitness_for_women", "website": "http://fitcurves.org.ua"}}, {"type": "node", "id": 4276756790, "lat": 50.4055249, "lon": 30.6315698, "tags": {"leisure": "fitness_centre", "name": "\u0421\u043f\u043e\u0440\u0442\u041b\u0435\u043d\u0434", "name:uk": "\u0421\u043f\u043e\u0440\u0442\u041b\u0435\u043d\u0434", "opening_hours": "Mo-Fr 07:00-23:00; Sa-Su 09:00-22:00", "phone": "+380 44 390 3390", "website": "https://sportlandclub.com.ua/"}}, {"type": "node", "id": 4281868998, "lat": 50.4880081, "lon": 30.4941536, "tags": {"addr:housenumber": "6", "addr:street": "\u043f\u0440\u043e\u0441\u043f\u0435\u043a\u0442 \u0421\u0442\u0435\u043f\u0430\u043d\u0430 \u0411\u0430\u043d\u0434\u0435\u0440\u0438", "email": "info@dogsportclub.com.ua", "internet_access": "wlan", "leisure": "fitness_centre", "name": "DOG & Grand CrossFit", "name:uk": "DOG & Grand CrossFit", "opening_hours": "Mo-Fr 07:00-22:00; Sa-Su 09:00-22:00", "phone": "+380 44 500 7070", "website": "https://dogsportclub.com.ua/"}}, {"type": "node", "id": 4286099391, "lat": 50.4266807, "lon": 30.5438724, "tags": {"addr:housenumber": "13-\u0411", "addr:street": "\u0421\u0442\u0430\u0440\u043e\u043d\u0430\u0432\u043e\u0434\u043d\u0438\u0446\u044c\u043a\u0430 \u0432\u0443\u043b\u0438\u0446\u044f", "email": "reception@tsarsky.com", "internet_access": "wlan", "leisure": "fitness_centre", "name": "TSARSKY City Resort", "name:en": "Tsarsky City Resort", "name:ru": "\u0426\u0430\u0440\u0441\u043a\u0438\u0439", "name:uk": "\u0426\u0430\u0440\u0441\u044c\u043a\u0438\u0439", "opening_hours": "Mo-Su 07:00-23:00", "phone": "+380 44 227 7799", "website": "https://www.tsarsky.com/"}}, {"type": "node", "id": 4304702089, "lat": 50.4190156, "lon": 30.5544371, "tags": {"addr:housenumber": "31-37", "addr:street": "\u0411\u043e\u043b\u0441\u0443\u043d\u043e\u0432\u0441\u044c\u043a\u0430 \u0432\u0443\u043b\u0438\u0446\u044f", "internet_access": "wlan", "leisure": "fitness_centre", "name": "\u0422\u0435\u043d\u043d\u0456\u0441\u043d\u0456 \u043a\u043e\u0440\u0442\u0438 \"\u041c\u0430\u0435\u0441\u0442\u0440\u043e-\u0441\u043f\u043e\u0440\u0442\"", "name:en": "Tennis courts \"Maestro-sport\"", "name:uk": "\u0422\u0435\u043d\u0456\u0441\u043d\u0456 \u043a\u043e\u0440\u0442\u0438 \"\u041c\u0430\u0435\u0441\u0442\u0440\u043e-\u0441\u043f\u043e\u0440\u0442\""}}, {"type": "node", "id": 4313284690, "lat": 50.4525682, "lon": 30.3878073, "tags": {"addr:street": "\u0421\u0432\u044f\u0442\u043e\u0448\u0438\u043d\u0441\u044c\u043a\u0430 \u0432\u0443\u043b\u0438\u0446\u044f", "leisure": "fitness_centre", "name": "\u0424\u0438\u0442\u043b\u0430\u0439\u043d", "name:uk": "\u0424\u0438\u0442\u043b\u0430\u0439\u043d", "opening_hours": "Mo-Fr 07:00-22:00; Sa-Su 09:00-22:00", "website": "http://fitline.kiev.ua"}}, {"type": "node", "id": 4315791690, "lat": 50.4150641, "lon": 30.4042034, "tags": {"check_date": "2023-10-01", "leisure": "fitness_centre", "name": "Fitness-Life", "name:uk": "Fitness-Life", "opening_hours": "Mo-Fr 07:00-23:00; Sa-Su 09:00-21:00", "website": "https://fitnesslife.ua/"}}, {"type": "node", "id": 4348506191, "lat": 50.4370595, "lon": 30.5134342, "tags": {"internet_access": "wlan", "leisure": "fitness_centre", "name": "Kiev Yoga Studio", "name:uk": "Kiev Yoga Studio", "opening_hours": "Mo-Su 07:00-22:00", "phone": "+380 95 272 9955", "website": "https://www.kievyogastudio.com/"}}, {"type": "node", "id": 4382000789, "lat": 50.4450088, "lon": 30.4931482, "tags": {"leisure": "fitness_centre", "name": "\u041f\u0456\u043d\u0433-\u043f\u043e\u043d\u0433 \u043a\u043b\u0443\u0431", "name:ru": "\u041f\u0438\u043d\u0433-\u043f\u043e\u043d\u0433 \u043a\u043b\u0443\u0431", "name:uk": "\u041f\u0456\u043d\u0433-\u043f\u043e\u043d\u0433 \u043a\u043b\u0443\u0431"}}, {"type": "node", "id": 4382320395, "lat": 50.4260399, "lon": 30.6658396, "tags": {"leisure": "fitness_centre", "name": "\u0410\u0442\u043b\u0435\u0442\u0456\u041a\u043e", "name:ru": "\u0410\u0442\u043b\u0435\u0442\u0438\u041a\u043e", "name:uk": "\u0410\u0442\u043b\u0435\u0442\u0456\u041a\u043e", "opening_hours": "Mo-Su 07:00-23:00", "phone": "+380 67 443 8001"}}, {"type": "node", "id": 4398962300, "lat": 50.436739, "lon": 30.4725207, "tags": {"leisure": "fitness_centre", "name": "\u0411\u0430\u0441\u0435\u0439\u043d \u0414\u0424\u041e\u041a \u00ab\u0417\u043e\u0440\u044f\u043d\u0438\u0439\u00bb \u0432 \u0413\u0456\u043c\u043d\u0430\u0437\u0456\u0457 \u2116178", "name:uk": "\u0411\u0430\u0441\u0435\u0439\u043d \u0414\u0424\u041e\u041a \u00ab\u0417\u043e\u0440\u044f\u043d\u0438\u0439\u00bb \u0432 \u0413\u0456\u043c\u043d\u0430\u0437\u0456\u0457 \u2116178"}}, {"type": "node", "id": 4422400290, "lat": 50.456376, "lon": 30.6373357, "tags": {"branch": "\u0427\u0435\u0440\u043d\u0456\u0433\u0456\u0432\u0441\u044c\u043a\u0430", "branch:en": "Chernihivska", "branch:ru": "\u0427\u0435\u0440\u043d\u0438\u0433\u043e\u0432\u0441\u043a\u0430\u044f", "branch:uk": "\u0427\u0435\u0440\u043d\u0456\u0433\u0456\u0432\u0441\u044c\u043a\u0430", "brand": "Sport Life", "brand:wikidata": "Q56356180", "leisure": "fitness_centre", "name": "Sport Life", "name:en": "Sport Life", "name:uk": "Sport Life", "opening_hours": "Mo-Fr 08:00-22:00; Sa,Su 09:00-20:00", "website": "https://www.sportlife.ua/uk/clubs/kiev/chernigovskaya"}}, {"type": "node", "id": 4422604091, "lat": 50.413282, "lon": 30.5494331, "tags": {"leisure": "fitness_centre", "name": "\u0415\u0440\u0456\u043a\u0441", "name:en": "Erix", "name:uk": "\u0415\u0440\u0456\u043a\u0441", "opening_hours": "Mo-Su 08:00-23:00", "phone": "+380 44 224 5735", "website": "https://erix.kiev.ua/"}}, {"type": "node", "id": 4424531807, "lat": 50.4251467, "lon": 30.3837437, "tags": {"leisure": "fitness_centre", "name": "FitCurves", "name:en": "FitCurves", "name:ru": "FitCurves", "name:uk": "FitCurves"}}, {"type": "node", "id": 4465197790, "lat": 50.432086, "lon": 30.6341166, "tags": {"leisure": "fitness_centre", "name": "\u041a\u043e\u043b\u0456\u0437\u0435\u0439", "name:ru": "\u041a\u043e\u043b\u0438\u0437\u0435\u0439", "name:uk": "\u041a\u043e\u043b\u0456\u0437\u0435\u0439"}}, {"type": "node", "id": 4478976790, "lat": 50.5333545, "lon": 30.4691082, "tags": {"leisure": "fitness_centre", "name": "\u0422\u0440\u0435\u043d\u0430\u0436\u0435\u0440\u0438", "name:en": "Bom gym", "name:uk": "\u0411\u043e\u043c\u0436\u0435\u0442\u0440\u0435\u043d\u0430\u0436\u0435\u0440\u0438"}}, {"type": "node", "id": 4542703064, "lat": 50.3546698, "lon": 30.4810158, "tags": {"addr:postcode": "03143", "addr:street": "\u0432\u0443\u043b\u0438\u0446\u044f \u0410\u043a\u0430\u0434\u0435\u043c\u0456\u043a\u0430 \u0417\u0430\u0431\u043e\u043b\u043e\u0442\u043d\u043e\u0433\u043e", "leisure": "fitness_centre", "name": "Stronger", "name:uk": "Stronger", "personal_trainer": "yes", "sauna": "no", "sport": "fitness;athletics;multi", "swimming_pool": "no", "website": "https://www.facebook.com/strongergymkiev/"}}, {"type": "node", "id": 4542714890, "lat": 50.5018272, "lon": 30.4343961, "tags": {"leisure": "fitness_centre", "name": "\u0421\u0435\u043c\u0441\u043f\u043e\u0440\u0442", "name:uk": "\u0421\u0435\u043c\u0441\u043f\u043e\u0440\u0442", "opening_hours": "Mo-Fr 08:00-22:00, Sa-Su 09:00-18:00", "phone": "+380 98 783 1434;+380 95 803 4619;+380 93 279 6390", "website": "https://semsport.com.ua/"}}, {"type": "node", "id": 4555418928, "lat": 50.4321607, "lon": 30.3855969, "tags": {"addr:housenumber": "7", "addr:postcode": "03148", "addr:street": "\u0432\u0443\u043b\u0438\u0446\u044f \u0413\u043d\u0430\u0442\u0430 \u042e\u0440\u0438", "leisure": "fitness_centre", "name": "\u041c\u0430\u043b\u0456\u0431\u0443", "name:uk": "\u041c\u0430\u043b\u0456\u0431\u0443", "opening_hours": "09:00-23:00", "sport": "multi", "website": "www.malibu-sport.com.ua"}}, {"type": "node", "id": 4557079290, "lat": 50.4034527, "lon": 30.5319614, "tags": {"addr:housenumber": "12", "addr:street": "\u0424\u0435\u043e\u0434\u043e\u0441\u0456\u0439\u0441\u044c\u043a\u0438\u0439 \u043f\u0440\u043e\u0432\u0443\u043b\u043e\u043a", "leisure": "fitness_centre", "name": "Crystal Fitness", "name:ru": "Crystal Fitness", "name:uk": "Crystal Fitness", "opening_hours": "Mo-Su 10:00-23:00"}}, {"type": "node", "id": 4587990363, "lat": 50.4117441, "lon": 30.4097024, "tags": {"leisure": "fitness_centre"}}, {"type": "node", "id": 4590389550, "lat": 50.4517237, "lon": 30.3764013, "tags": {"leisure": "fitness_centre", "name": "Only You", "name:uk": "Only You"}}, {"type": "node", "id": 4610388989, "lat": 50.4071811, "lon": 30.6498428, "tags": {"leisure": "fitness_centre", "name": "\u0420\u043e\u0437\u0442\u0440\u0443\u0441\u0438", "name:uk": "\u0420\u043e\u0437\u0442\u0440\u0443\u0441\u0438", "opening_hours": "PH,Mo-Su 07:00-23:00"}}, {"type": "node", "id": 4616393665, "lat": 50.4720942, "lon": 30.3376708, "tags": {"leisure": "fitness_centre", "name": "Fit Curves", "name:uk": "Fit Curves", "sport": "fitness"}}, {"type": "node", "id": 4629631649, "lat": 50.4749158, "lon": 30.4393678, "tags": {"leisure": "fitness_centre", "name": "fitCurves", "name:uk": "fitCurves", "opening_hours": "Mo-Fr 08:00-13:00,16:00-21:00; Sa 09:00-14:00", "sport": "gymnastics"}}, {"type": "node", "id": 4696976296, "lat": 50.4352573, "lon": 30.5447209, "tags": {"branch": "\u0410\u0440\u0441\u0435\u043d\u0430\u043b\u044c\u043d\u0430", "branch:en": "Arsenalna", "branch:ru": "\u0410\u0440\u0441\u0435\u043d\u0430\u043b\u044c\u043d\u0430\u044f", "branch:uk": "\u0410\u0440\u0441\u0435\u043d\u0430\u043b\u044c\u043d\u0430", "brand": "Sport Life", "brand:wikidata": "Q56356180", "leisure": "fitness_centre", "name": "Sport Life", "name:en": "Sport Life", "name:uk": "Sport Life", "opening_hours": "Mo-Fr 08:00-22:00; Sa,Su 09:00-20:00", "phone": "+380 44 364 4528", "website": "https://www.sportlife.ua/uk/clubs/kiev/arsenalnaia"}}, {"type": "node", "id": 4742996422, "lat": 50.4850838, "lon": 30.5955992, "tags": {"leisure": "fitness_centre", "name": "\u0421\u043f\u043e\u0440\u0442\u041b\u0435\u043d\u0434", "name:en": "SportLand", "name:ru": "\u0421\u043f\u043e\u0440\u0442\u041b\u044d\u043d\u0434", "name:uk": "\u0421\u043f\u043e\u0440\u0442\u041b\u0435\u043d\u0434"}}, {"type": "node", "id": 4746690137, "lat": 50.5111286, "lon": 30.5120876, "tags": {"leisure": "fitness_centre", "name": "\u0412\u0441\u0456 \u0421\u0432\u043e\u0457", "name:uk": "\u0412\u0441\u0456 \u0421\u0432\u043e\u0457", "sport": "yoga"}}, {"type": "node", "id": 4806776305, "lat": 50.4684844, "lon": 30.4625345, "tags": {"entrance": "main", "wheelchair": "yes"}}, {"type": "node", "id": 4870702184, "lat": 50.457635, "lon": 30.4287048, "tags": {"leisure": "fitness_centre", "name": "Zeus sport club", "name:uk": "Zeus sport club"}}, {"type": "node", "id": 4870753412, "lat": 50.4787507, "lon": 30.598332, "tags": {"leisure": "fitness_centre", "name": "Curves", "name:uk": "Curves", "source": "Kaart Ground Survey 2017"}}, {"type": "node", "id": 4872641003, "lat": 50.4652962, "lon": 30.5116153, "tags": {"addr:street": "\u0432\u0443\u043b\u0438\u0446\u044f \u0412\u0435\u0440\u0445\u043d\u0456\u0439 \u0412\u0430\u043b", "fixme": "name", "leisure": "fitness_centre", "source": "Kaart Ground Survey 2017"}}, {"type": "node", "id": 4872965067, "lat": 50.5015113, "lon": 30.5930708, "tags": {"leisure": "fitness_centre", "name": "\u0431\u043b\u0456 \u0434\u043b\u044f \u0434\u043e\u043c\u0443", "name:uk": "\u0431\u043b\u0456 \u0434\u043b\u044f \u0434\u043e\u043c\u0443", "source": "Kaart Ground Survey 2017"}}, {"type": "node", "id": 4876746576, "lat": 50.3760982, "lon": 30.6062761, "tags": {"leisure": "fitness_centre", "name": "Maxim", "source": "Kaart Ground Survey 2017"}}, {"type": "node", "id": 4915391656, "lat": 50.4466407, "lon": 30.4308939, "tags": {"internet_access": "wlan", "layer": "2", "leisure": "fitness_centre", "name": "Gym Fit", "name:uk": "Gym Fit", "opening_hours": "mo-fr 07:00-22:00, sa-su 09:00-21:00"}}, {"type": "node", "id": 4977320525, "lat": 50.4523232, "lon": 30.5022216, "tags": {"addr:housenumber": "19", "addr:street": "\u0411\u0443\u043b\u044c\u0432\u0430\u0440\u043d\u043e-\u041a\u0443\u0434\u0440\u044f\u0432\u0441\u044c\u043a\u0430 \u0432\u0443\u043b\u0438\u0446\u044f", "leisure": "fitness_centre", "level": "-1", "name": "\u0410\u0442\u043b\u0435\u0442\u0456\u041a\u043e", "name:uk": "\u0410\u0442\u043b\u0435\u0442\u0456\u041a\u043e", "opening_hours": "Mo-Su 06:00-23:00", "phone": "+380 67 538 0069", "website": "https://atletiko.club/"}}, {"type": "node", "id": 4993578701, "lat": 50.5297929, "lon": 30.6237794, "tags": {"leisure": "fitness_centre", "sport": "yoga"}}, {"type": "node", "id": 5010929924, "lat": 50.4554721, "lon": 30.4198204, "tags": {"addr:housenumber": "1", "addr:street": "\u0432\u0443\u043b\u0438\u0446\u044f \u041c\u0438\u043a\u043e\u043b\u0438 \u0412\u0430\u0441\u0438\u043b\u0435\u043d\u043a\u0430", "internet_access": "wlan", "leisure": "fitness_centre", "name": "Jumping Hall", "name:ru": "Jumping Hall", "name:uk": "Jumping Hall", "opening_hours": "Mo-Su 08:00-22:00", "phone": "+380 67 917 2366", "website": "https://www.jumpinghall.com/"}}, {"type": "node", "id": 5014956722, "lat": 50.4053603, "lon": 30.6355003, "tags": {"leisure": "fitness_centre", "name": "\u0421\u043f\u043e\u0440\u0442\u0438\u0432\u043d\u0438\u0439 \u043c\u0430\u0439\u0434\u0430\u043d\u0447\u0438\u043a", "name:uk": "\u0421\u043f\u043e\u0440\u0442\u0438\u0432\u043d\u0438\u0439 \u043c\u0430\u0439\u0434\u0430\u043d\u0447\u0438\u043a"}}, {"type": "node", "id": 5100300257, "lat": 50.3938239, "lon": 30.621292, "tags": {"addr:housenumber": "5", "addr:postcode": "02140", "addr:street": "\u0432\u0443\u043b\u0438\u0446\u044f \u0404\u043b\u0438\u0437\u0430\u0432\u0435\u0442\u0438 \u0427\u0430\u0432\u0434\u0430\u0440", "leisure": "fitness_centre", "name": "\u0411\u0443\u043b\u044c\u0434\u043e\u0433", "name:en": "Bulldog", "name:ru": "\u0411\u0443\u043b\u044c\u0434\u043e\u0433", "name:uk": "\u0411\u0443\u043b\u044c\u0434\u043e\u0433", "sport": "fitness"}}, {"type": "node", "id": 5104640622, "lat": 50.4544091, "lon": 30.5979205, "tags": {"leisure": "fitness_centre", "name": "\u0413\u0440\u0430\u0444\u0456\u0442", "name:en": "GraFit", "name:ru": "\u0413\u0440\u0430\u0444\u0438\u0442", "name:uk": "\u0413\u0440\u0430\u0444\u0456\u0442"}}, {"type": "node", "id": 5113508021, "lat": 50.4356575, "lon": 30.3808756, "tags": {"internet_access": "wlan", "leisure": "fitness_centre", "name": "\u0424\u0456\u0442\u043d\u0435\u0441 \u043a\u043b\u0443\u0431 \u0421\u043f\u043e\u0440\u0442\u0421\u0442\u0430\u0440", "name:en": "Fitness club SportStar", "name:ru": "\u0424\u0438\u0442\u043d\u0435\u0441 \u043a\u043b\u0443\u0431 \u0421\u043f\u043e\u0440\u0442\u0421\u0442\u0430\u0440", "name:uk": "\u0424\u0456\u0442\u043d\u0435\u0441 \u043a\u043b\u0443\u0431 \u0421\u043f\u043e\u0440\u0442\u0421\u0442\u0430\u0440", "opening_hours": "Mo-Su 07:00-23:00", "phone": "+380 44 227 0550", "website": "https://sport-star.kiev.ua/"}}, {"type": "node", "id": 5140116349, "lat": 50.4629542, "lon": 30.6344529}, {"type": "node", "id": 5140116350, "lat": 50.4629074, "lon": 30.6344855}, {"type": "node", "id": 5140116351, "lat": 50.4628691, "lon": 30.6343494}, {"type": "node", "id": 5140116352, "lat": 50.4629159, "lon": 30.6343169}, {"type": "node", "id": 5226156323, "lat": 50.4240211, "lon": 30.4463503, "tags": {"description": "Team Dolgov", "leisure": "fitness_centre", "name": "Muscle Gym", "name:uk": "GYM", "opening_hours": "Mo-Fr 07:00-22:00; Sa, Su 08:00-21:00"}}, {"type": "node", "id": 5235463823, "lat": 50.4487739, "lon": 30.6043857, "tags": {"addr:housenumber": "23-\u0410", "addr:street": "\u0432\u0443\u043b\u0438\u0446\u044f \u0404\u0432\u0433\u0435\u043d\u0430 \u0421\u0432\u0435\u0440\u0441\u0442\u044e\u043a\u0430", "leisure": "fitness_centre", "name": "\u0420\u043e\u043b\u043b\u0435\u0440 \u0448\u043a\u043e\u043b\u0430 \u00ab\u0421\u0442\u0430\u0440\u0442\u00bb", "name:en": "Rollerschool \u00abStart\u00bb", "name:uk": "\u0420\u043e\u043b\u043b\u0435\u0440 \u0448\u043a\u043e\u043b\u0430 \u00ab\u0421\u0442\u0430\u0440\u0442\u00bb", "opening_hours": "We,Sa-Su 15:30-17:30", "phone": "+380 96 132 1085"}}, {"type": "node", "id": 5235526924, "lat": 50.4436876, "lon": 30.631028, "tags": {"leisure": "fitness_centre", "name": "\u0420\u0430\u0439", "name:en": "Heaven", "name:uk": "\u0420\u0430\u0439", "opening_hours": "Mo-Su 07:30-23:00", "phone": "+380 73 100 0860", "website": "https://poleheaven.com.ua/"}}, {"type": "node", "id": 5235526925, "lat": 50.462509, "lon": 30.5231378, "tags": {"addr:housenumber": "6", "addr:street": "\u0411\u0440\u0430\u0442\u0441\u044c\u043a\u0430 \u0432\u0443\u043b\u0438\u0446\u044f", "leisure": "fitness_centre", "name": "Heaven Pole Dance", "name:en": "Heaven Pole Dance", "name:uk": "Heaven Pole Dance", "opening_hours": "Mo-Su 07:30-22:30", "phone": "+380 63 727 0779", "sport": "pole_dance", "website": "https://poleheaven.com.ua/"}}, {"type": "node", "id": 5243187922, "lat": 50.4409599, "lon": 30.5246383, "tags": {"leisure": "fitness_centre", "name": "\u041f\u043b\u0430\u043d\u0435\u0442\u0430 \u0424\u0456\u0442\u043d\u0435\u0441", "name:en": "Planet Fitness", "name:uk": "\u041f\u043b\u0430\u043d\u0435\u0442\u0430 \u0424\u0456\u0442\u043d\u0435\u0441", "opening_hours": "Mo-Fr 07:00-23:00, Sa-Su 09:00-21:00", "website": "http://www.planetfitness.com.ua/"}}, {"type": "node", "id": 5304683922, "lat": 50.5175364, "lon": 30.5112056, "tags": {"leisure": "fitness_centre", "name": "\u0410\u0435\u043b\u0456\u0442\u0430", "name:uk": "\u0410\u0435\u043b\u0456\u0442\u0430"}}, {"type": "node", "id": 5319690877, "lat": 50.4635211, "lon": 30.5250859, "tags": {"addr:housenumber": "13-\u0411", "addr:street": "\u041d\u0430\u0431\u0435\u0440\u0435\u0436\u043d\u043e-\u0425\u0440\u0435\u0449\u0430\u0442\u0438\u0446\u044c\u043a\u0430 \u0432\u0443\u043b\u0438\u0446\u044f", "leisure": "fitness_centre", "name": "\u0410\u0442\u043b\u0435\u0442\u0456\u041a\u043e", "name:uk": "\u0410\u0442\u043b\u0435\u0442\u0456\u041a\u043e"}}, {"type": "node", "id": 5323966623, "lat": 50.4284617, "lon": 30.6041488, "tags": {"addr:housenumber": "18/1", "addr:postcode": "02159", "addr:street": "\u043f\u0440\u043e\u0441\u043f\u0435\u043a\u0442 \u041f\u0430\u0432\u043b\u0430 \u0422\u0438\u0447\u0438\u043d\u0438", "internet_access": "wlan", "leisure": "fitness_centre", "name": "\u0424\u0435\u043c\u0435\u043b\u0456 \u0435\u043d\u0435\u0440\u0436\u0456", "name:en": "Female energy", "name:ru": "\u0444\u0435\u043c\u0435\u043b\u0438 \u0435\u043d\u0435\u0440\u0436\u0438", "name:uk": "\u0424\u0435\u043c\u0435\u043b\u0456 \u0435\u043d\u0435\u0440\u0436\u0456", "opening_hours": "Mo-Su 08:00-21:00"}}, {"type": "node", "id": 5434668721, "lat": 50.411192, "lon": 30.6141077, "tags": {"leisure": "fitness_centre", "name": "Energy Gym", "name:en": "Energy Gym", "name:uk": "Energy Gym"}}, {"type": "node", "id": 5455230721, "lat": 50.4551279, "lon": 30.360582, "tags": {"internet_access": "wlan", "leisure": "fitness_centre", "name": "\u0422\u0432\u043e\u044f \u0419\u043e\u0433\u0430 \u0421\u0442\u0443\u0434i\u044f", "name:en": "Your Yoga Studio", "name:uk": "\u0422\u0432\u043e\u044f \u0419\u043e\u0433\u0430 \u0421\u0442\u0443\u0434i\u044f"}}, {"type": "node", "id": 5482931760, "lat": 50.4021873, "lon": 30.6132031}, {"type": "node", "id": 5482931761, "lat": 50.4018293, "lon": 30.6129442}, {"type": "node", "id": 5482931762, "lat": 50.4017586, "lon": 30.6131585}, {"type": "node", "id": 5482931764, "lat": 50.401737, "lon": 30.613449}, {"type": "node", "id": 5482931766, "lat": 50.4016984, "lon": 30.613726}, {"type": "node", "id": 5482931767, "lat": 50.4019567, "lon": 30.6139331}, {"type": "node", "id": 5530608421, "lat": 50.4317188, "lon": 30.6341546, "tags": {"internet_access": "wlan", "leisure": "fitness_centre", "name": "\u0417\u0430\u043b \u0434\u043b\u044f \u0441\u0442\u0440\u0438\u0431\u043a\u0456\u0432", "name:en": "Jumping Hall", "name:uk": "\u0417\u0430\u043b \u0434\u043b\u044f \u0441\u0442\u0440\u0438\u0431\u043a\u0456\u0432", "opening_hours": "Mo-Sa 10:00-22:00; Su 10:00-21:00", "phone": "+380 67 917 2366", "website": "http://Jumpinghall.com"}}, {"type": "node", "id": 5636742431, "lat": 50.4566659, "lon": 30.6318284, "tags": {"addr:housenumber": "8", "addr:street": "\u0432\u0443\u043b\u0438\u0446\u044f \u0413\u043d\u0430\u0442\u0430 \u0425\u043e\u0442\u043a\u0435\u0432\u0438\u0447\u0430", "leisure": "fitness_centre", "level": "-1", "name": "Grand Sport", "name:uk": "Grand Sport", "opening_hours": "Mo-Fr 07:00-22:00; Sa 10:00-21:00; Su 12:00-20:00", "payment:cash": "yes", "phone": "+380 63 968 3838", "sport": "fitness", "website": "https://grand-sport.kiev.ua/"}}, {"type": "node", "id": 5658886521, "lat": 50.3869613, "lon": 30.6251065, "tags": {"addr:housenumber": "24", "addr:street": "\u0432\u0443\u043b\u0438\u0446\u044f \u0404\u043b\u0438\u0437\u0430\u0432\u0435\u0442\u0438 \u0427\u0430\u0432\u0434\u0430\u0440", "leisure": "fitness_centre", "name": "\u0422\u0440\u0435\u043d\u0443\u0432\u0430\u043d\u043d\u044f \u043d\u0430 \u0440\u043e\u043b\u0438\u043a\u0430\u0445", "name:en": "Rollerblading training", "name:uk": "\u0422\u0440\u0435\u043d\u0443\u0432\u0430\u043d\u043d\u044f \u043d\u0430 \u0440\u043e\u043b\u0438\u043a\u0430\u0445", "phone": "+380 67 811 4133", "website": "https://m.facebook.com/roller.club.kiev"}}, {"type": "node", "id": 5658941928, "lat": 50.4594552, "lon": 30.6034182, "tags": {"addr:street": "\u043f\u0440\u043e\u0441\u043f\u0435\u043a\u0442 \u0413\u0435\u043e\u0440\u0433\u0456\u044f \u041d\u0430\u0440\u0431\u0443\u0442\u0430", "leisure": "fitness_centre", "name": "\u0422\u0440\u0435\u043d\u0443\u0432\u0430\u043d\u043d\u044f \u043d\u0430 \u0440\u043e\u043b\u0438\u043a\u0430\u0445", "name:en": "Rollerblading training", "name:uk": "\u0422\u0440\u0435\u043d\u0443\u0432\u0430\u043d\u043d\u044f \u043d\u0430 \u0440\u043e\u043b\u0438\u043a\u0430\u0445", "phone": "+380 96 132 1085", "website": "http://startroller.club"}}, {"type": "node", "id": 5658941929, "lat": 50.4681414, "lon": 30.6034857, "tags": {"addr:housenumber": "14", "addr:street": "\u0412\u043e\u0441\u043a\u0440\u0435\u0441\u0435\u043d\u0441\u044c\u043a\u0430 \u0432\u0443\u043b\u0438\u0446\u044f", "leisure": "fitness_centre", "name": "\u0422\u0440\u0435\u043d\u0443\u0432\u0430\u043d\u043d\u044f \u043d\u0430 \u0440\u043e\u043b\u0438\u043a\u0430\u0445", "name:en": "Rollerblading training", "name:uk": "\u0422\u0440\u0435\u043d\u0443\u0432\u0430\u043d\u043d\u044f \u043d\u0430 \u0440\u043e\u043b\u0438\u043a\u0430\u0445", "phone": "+380 96 132 1085", "website": "http://startroller.club"}}, {"type": "node", "id": 5658974421, "lat": 50.4847285, "lon": 30.5949129, "tags": {"leisure": "fitness_centre", "name": "\u0422\u0440\u0435\u043d\u0443\u0432\u0430\u043d\u043d\u044f \u043d\u0430 \u0440\u043e\u043b\u0438\u043a\u0430\u0445", "name:en": "Rollerblading training", "name:uk": "\u0422\u0440\u0435\u043d\u0443\u0432\u0430\u043d\u043d\u044f \u043d\u0430 \u0440\u043e\u043b\u0438\u043a\u0430\u0445", "phone": "+380 96 132 1085", "website": "http://startroller.club"}}, {"type": "node", "id": 5680444722, "lat": 50.4775659, "lon": 30.4021488, "tags": {"leisure": "fitness_centre", "name": "Fit Curves", "name:uk": "Fit Curves"}}, {"type": "node", "id": 5753930303, "lat": 50.4024957, "lon": 30.6403747, "tags": {"leisure": "fitness_centre"}}, {"type": "node", "id": 5754799521, "lat": 50.2625878, "lon": 30.6223994, "tags": {"leisure": "fitness_centre"}}, {"type": "node", "id": 5773070080, "lat": 50.2615484, "lon": 30.6229942, "tags": {"leisure": "fitness_centre"}}, {"type": "node", "id": 5784369884, "lat": 50.4533042, "lon": 30.6233965, "tags": {"leisure": "fitness_centre", "name": "\u041c\u0430\u043b\u0456\u0431\u0443", "name:uk": "\u041c\u0430\u043b\u0456\u0431\u0443"}}, {"type": "node", "id": 5794037763, "lat": 50.4482991, "lon": 30.5073207, "tags": {"leisure": "fitness_centre"}}, {"type": "node", "id": 5828897088, "lat": 50.4121456, "lon": 30.4008085, "tags": {"leisure": "fitness_centre"}}, {"type": "node", "id": 5879083740, "lat": 50.5009574, "lon": 30.5010977, "tags": {"leisure": "fitness_centre", "name": "CrossFit Banda", "name:uk": "CrossFit Banda", "sport": "fitness", "website": "https://crossfitbanda.com/obolon"}}, {"type": "node", "id": 5910550650, "lat": 50.4071791, "lon": 30.5553111, "tags": {"addr:housenumber": "59", "addr:street": "\u0417\u0432\u0456\u0440\u0438\u043d\u0435\u0446\u044c\u043a\u0430 \u0432\u0443\u043b\u0438\u0446\u044f", "brand": "Sport Life", "leisure": "fitness_centre", "name": "Sport Life \u041f\u0435\u0447\u0435\u0440\u0441\u044c\u043a", "name:en": "Sport Life Pechersk", "name:ru": "\u0421\u043f\u043e\u0440\u0442 \u041b\u0430\u0439\u0444 \u041f\u0435\u0447\u0435\u0440\u0441\u043a", "name:uk": "\u0421\u043f\u043e\u0440\u0442 \u041b\u0430\u0439\u0444 \u041f\u0435\u0447\u0435\u0440\u0441\u044c\u043a", "opening_hours": "Mo-Fr 07:00-23:00; Sa,Su 09:00-22:00", "website": "https://www.sportlife.ua/uk/clubs/kiev/pechersk"}}, {"type": "node", "id": 5910550652, "lat": 50.4377606, "lon": 30.5273433, "tags": {"addr:housenumber": "2-\u0410", "addr:street": "\u0432\u0443\u043b\u0438\u0446\u044f \u041c\u0435\u0447\u043d\u0438\u043a\u043e\u0432\u0430", "brand": "Sport Life", "brand:wikidata": "Q56356180", "check_date": "2023-03-05", "leisure": "fitness_centre", "name": "Sport Life \u041b\u0435\u0441\u0456 \u0423\u043a\u0440\u0430\u0457\u043d\u043a\u0438", "name:en": "Sport Life Lesi Ukrainky", "name:ru": "\u0421\u043f\u043e\u0440\u0442 \u041b\u0430\u0439\u0444 \u041b\u0435\u0441\u0438 \u0423\u043a\u0440\u0430\u0438\u043d\u043a\u0438", "name:uk": "\u0421\u043f\u043e\u0440\u0442 \u041b\u0430\u0439\u0444 \u041b\u0435\u0441\u0456 \u0423\u043a\u0440\u0430\u0457\u043d\u043a\u0438", "opening_hours": "Mo-Fr 07:00-23:00; Sa,Su 09:00-22:00", "website": "https://www.sportlife.ua/uk/clubs/kiev/lesi_ukrainki"}}, {"type": "node", "id": 5911612794, "lat": 50.4657357, "lon": 30.5126095, "tags": {"leisure": "fitness_centre", "name": "Sparta Box", "name:uk": "Sparta Box"}}, {"type": "node", "id": 5979156737, "lat": 50.4232425, "lon": 30.5138023, "tags": {"leisure": "fitness_centre", "name": "\u0421\u0442\u0443\u0434\u0456\u044f \u043f\u0456\u043b\u0430\u0442\u0435\u0441\u0443 Fitness4You", "name:ru": "\u0421\u0442\u0443\u0434\u0438\u044f \u043f\u0438\u043b\u0430\u0442\u0435\u0441\u0430 Fitness4You", "name:uk": "\u0421\u0442\u0443\u0434\u0456\u044f \u043f\u0456\u043b\u0430\u0442\u0435\u0441\u0443 Fitness4You", "sport": "fitness", "website": "http://www.fitness4you.ua/"}}, {"type": "node", "id": 6185388986, "lat": 50.5095102, "lon": 30.6082728, "tags": {"leisure": "fitness_centre", "name": "\u0410\u0442\u043b\u0435\u0442\u0438\u043a\u043e", "name:uk": "\u0410\u0442\u043b\u0435\u0442\u0438\u043a\u043e"}}, {"type": "node", "id": 6195547385, "lat": 50.4546655, "lon": 30.4004595, "tags": {"addr:housenumber": "11", "addr:street": "\u0432\u0443\u043b\u0438\u0446\u044f \u0420\u0435\u043d\u0435 \u0414\u0435\u043a\u0430\u0440\u0442\u0430", "email": "folimp09@gmail.com", "internet_access": "wlan", "leisure": "fitness_centre", "name": "\u041e\u043b\u0456\u043c\u043f", "name:en": "olymp", "name:uk": "\u041e\u043b\u0456\u043c\u043f", "opening_hours": "Mo-Su 07:00-22:45", "phone": "+380 44 503 7218", "website": "https://www.fitness-olimp.kiev.ua/"}}, {"type": "node", "id": 6331352486, "lat": 50.4597956, "lon": 30.5118201, "tags": {"leisure": "fitness_centre", "name": "\u0415\u0411\u0428", "name:de": "EBSh", "name:en": "EBSh", "name:uk": "\u0415\u0411\u0428", "phone": "+380 68 383 8381", "website": "https://ebsh.ua/"}}, {"type": "node", "id": 6672740546, "lat": 50.4481794, "lon": 30.5051842, "tags": {"addr:housenumber": "58-\u0410", "addr:street": "\u0432\u0443\u043b\u0438\u0446\u044f \u0411\u043e\u0433\u0434\u0430\u043d\u0430 \u0425\u043c\u0435\u043b\u044c\u043d\u0438\u0446\u044c\u043a\u043e\u0433\u043e", "email": "wshopkiev@gmail.com", "leisure": "fitness_centre", "name": "Workshop Fitness Club", "name:uk": "Workshop Fitness Club", "opening_hours": "Mo-Fr 07:00-22:00; Sa-Su 09:00-21:00", "phone": "+380 44 334 4324", "website": "https://bh.workshop.org.ua/uk/"}}, {"type": "node", "id": 6798251486, "lat": 50.4474912, "lon": 30.4224296, "tags": {"leisure": "fitness_centre", "name": "Workshop", "name:uk": "Workshop", "phone": "+380 68 239 1991"}}, {"type": "node", "id": 6834183545, "lat": 50.4482946, "lon": 30.592616, "tags": {"leisure": "fitness_centre", "level": "-1", "name": "\u0410\u0442\u043b\u0435\u0442\u0456\u041a\u043e", "name:uk": "\u0410\u0442\u043b\u0435\u0442\u0456\u041a\u043e", "opening_hours": "Mo-Su 07:00-23:00"}}, {"type": "node", "id": 6913318388, "lat": 50.393036, "lon": 30.6162573, "tags": {"addr:housenumber": "10-\u0413", "addr:street": "\u0417\u0430\u0432\u0430\u043b\u044c\u043d\u0430 \u0432\u0443\u043b\u0438\u0446\u044f", "leisure": "fitness_centre", "name": "\u0415\u0411\u0428", "name:uk": "\u0415\u0411\u0428", "phone": "+380 68 282 8111", "website": "https://ebsh.ua/"}}, {"type": "node", "id": 6952722186, "lat": 50.3761582, "lon": 30.5375187, "tags": {"internet_access": "wlan", "leisure": "fitness_centre", "name": "\u0410\u043c\u0431\u0430\u043b", "name:en": "Ambal", "name:uk": "\u0410\u043c\u0431\u0430\u043b", "opening_hours": "Mo-Fr 07:30-22:30; Sa-Su 08:30-20:00"}}, {"type": "node", "id": 7034723286, "lat": 50.4481735, "lon": 30.5057964, "tags": {"addr:housenumber": "58-\u0410", "addr:street": "\u0432\u0443\u043b\u0438\u0446\u044f \u0411\u043e\u0433\u0434\u0430\u043d\u0430 \u0425\u043c\u0435\u043b\u044c\u043d\u0438\u0446\u044c\u043a\u043e\u0433\u043e", "leisure": "fitness_centre", "opening_hours": "Mo-Fr 08:00-21:00, Sa-Su 10:00-18:00", "phone": "+380 68 166 9331", "sport": "crossfit;fitness", "website": "https://myfgmy.com"}}, {"type": "node", "id": 7141562677, "lat": 50.4533233, "lon": 30.5010714, "tags": {"leisure": "fitness_centre", "name": "Voin", "name:uk": "Voin", "opening_hours": "Mo-Fr 07:00-22:00; Sa, Su 11:00-16:00", "phone": "+380 50 613 5558", "website": "https://www.crossfitvoin.com/"}}, {"type": "node", "id": 7179117881, "lat": 50.4017734, "lon": 30.6137953}, {"type": "node", "id": 7238307589, "lat": 50.4964998, "lon": 30.4595653, "tags": {"contact:facebook": "https://www.facebook.com/FitnessBodySpirit", "contact:instagram": "https://www.instagram.com/fitnessbodyspirit", "leisure": "fitness_centre", "name": "Body&Spirit", "name:uk": "Body&Spirit", "phone": "+380 93 840 8238", "phone2": "+380 44 353 9540", "sport": "fitness", "website": "http://body-spirit.com.ua"}}, {"type": "node", "id": 7300407086, "lat": 50.4572748, "lon": 30.413311, "tags": {"addr:housenumber": "63-\u0411", "addr:street": "\u0411\u0435\u0440\u0435\u0441\u0442\u0435\u0439\u0441\u044c\u043a\u0438\u0439 \u043f\u0440\u043e\u0441\u043f\u0435\u043a\u0442", "leisure": "fitness_centre", "name": "\u041e\u043b\u0456\u043c\u043f", "name:ru": "\u041e\u043b\u0438\u043c\u043f", "name:uk": "\u041e\u043b\u0456\u043c\u043f"}}, {"type": "node", "id": 7423976250, "lat": 50.4317975, "lon": 30.6341052, "tags": {"leisure": "fitness_centre", "name": "MegaGym", "name:uk": "MegaGym", "website": "https://megagym.com/"}}, {"type": "node", "id": 7532048329, "lat": 50.4378116, "lon": 30.4400011, "tags": {"leisure": "fitness_centre", "name": "\u0422\u0440\u0435\u043d\u0430\u0436\u0435\u0440\u043d\u0438\u0439 \u0437\u0430\u043b \u0433\u0443\u0440\u0442\u043e\u0436\u0438\u0442\u043a\u0443 \u211611", "name:uk": "\u0422\u0440\u0435\u043d\u0430\u0436\u0435\u0440\u043d\u0438\u0439 \u0437\u0430\u043b \u0433\u0443\u0440\u0442\u043e\u0436\u0438\u0442\u043a\u0443 \u211611"}}, {"type": "node", "id": 7603720148, "lat": 50.3862949, "lon": 30.4698041, "tags": {"contact:email": "redbarbell73a@gmail.com", "contact:phone": "+380 99 128 7207", "contact:website": "https://redbarbell.com.ua/", "leisure": "fitness_centre", "name": "Red Barbell", "name:uk": "\u0420\u0435\u0434 \u0411\u0430\u0440\u0431\u0435\u043b", "opening_hours": "Sa,Su 08:00-22:00; Mo-Fr 07:00-23:00", "personal_trainer": "yes"}}, {"type": "node", "id": 7641217984, "lat": 50.4796587, "lon": 30.6058274, "tags": {"leisure": "fitness_centre", "name": "\u0424\u0456\u0442\u043d\u0435\u0441-\u043a\u043b\u0443\u0431 \u00ab\u0410\u0442\u043b\u0435\u0442\u0456\u043a\u043e\u00bb", "name:uk": "\u0424\u0456\u0442\u043d\u0435\u0441-\u043a\u043b\u0443\u0431 \u00ab\u0410\u0442\u043b\u0435\u0442\u0456\u043a\u043e\u00bb", "opening_hours": "07:00-23:00", "website": "https://atletiko.club"}}, {"type": "node", "id": 7767798197, "lat": 50.4540896, "lon": 30.4886285, "tags": {"leisure": "fitness_centre", "name": "XL", "name:uk": "XL", "survey:date": "2020-07-29"}}, {"type": "node", "id": 7861005524, "lat": 50.4076044, "lon": 30.5128645, "tags": {"leisure": "fitness_centre", "level": "-1", "name": "Erix", "name:uk": "Erix", "sport": "fitness"}}, {"type": "node", "id": 7875633870, "lat": 50.438888, "lon": 30.4399588, "tags": {"leisure": "fitness_centre", "name": "2Lstudio", "name:uk": "2Lstudio"}}, {"type": "node", "id": 8058468399, "lat": 50.4118218, "lon": 30.5314976, "tags": {"leisure": "fitness_centre", "name": "\u041d\u0435\u0432\u0430\u0433\u043e\u043c\u0456\u0441\u0442\u044c", "name:uk": "\u041d\u0435\u0432\u0430\u0433\u043e\u043c\u0456\u0441\u0442\u044c", "sport": "gymnastics"}}, {"type": "node", "id": 8066694733, "lat": 50.4925614, "lon": 30.5240151, "tags": {"addr:unit": "\u043a\u043e\u0440\u043f\u0443\u0441 7", "contact:instagram": "https://www.instagram.com/evolve_fitness_studio", "leisure": "fitness_centre", "name": "Evolve", "name:uk": "Evolve"}}, {"type": "node", "id": 8177019772, "lat": 50.4016863, "lon": 30.6136094}, {"type": "node", "id": 8177019773, "lat": 50.4017245, "lon": 30.6136352}, {"type": "node", "id": 8286101250, "lat": 50.5165169, "lon": 30.6188766, "tags": {"branch": "\u0422\u0440\u043e\u0454\u0449\u0438\u043d\u0430", "brand": "Sport Life", "brand:wikidata": "Q56356180", "club": "sport", "description": "Gym with Pool", "leisure": "fitness_centre", "name": "Sport Life", "name:uk": "Sport Life", "opening_hours": "Mo-Fr 07:00-22:00; Sa, Su 09:00-20:00", "phone": "+380 44 222 4222", "website": "https://www.sportlife.ua/uk/clubs/kiev/troeschina"}}, {"type": "node", "id": 8310823965, "lat": 50.4346747, "lon": 30.4433373, "tags": {"addr:housenumber": "2", "addr:street": "\u0432\u0443\u043b\u0438\u0446\u044f \u0410\u0432\u0433\u0443\u0441\u0442\u0438\u043d\u0430 \u0412\u043e\u043b\u043e\u0448\u0438\u043d\u0430", "leisure": "fitness_centre", "name": "\u0424\u0456\u0442\u043d\u0435\u0441 \u043a\u043b\u0443\u0431 \u041b\u0456\u0434\u0435\u0440", "name:uk": "\u0424\u0456\u0442\u043d\u0435\u0441 \u043a\u043b\u0443\u0431 \u041b\u0456\u0434\u0435\u0440"}}, {"type": "node", "id": 8381511883, "lat": 50.431042, "lon": 30.5827188, "tags": {"leisure": "fitness_centre", "sport": "fitness"}}, {"type": "node", "id": 8449669225, "lat": 50.4664942, "lon": 30.4296901, "tags": {"leisure": "fitness_centre", "name": "Do Yoga", "name:uk": "Do Yoga", "sport": "yoga", "website": "https://doyoga.kiev.ua/"}}, {"type": "node", "id": 8572700863, "lat": 50.4331978, "lon": 30.4482495, "tags": {"leisure": "fitness_centre", "name": "AV sport hub", "name:uk": "AV sport hub"}}, {"type": "node", "id": 8762076720, "lat": 50.4536027, "lon": 30.4701103, "tags": {"leisure": "fitness_centre", "name": "\u0412\u043e\u0434\u0456\u0441 \u0439\u043e\u0434\u0456\u0441", "name:uk": "\u0412\u043e\u0434\u0456\u0441 \u0439\u043e\u0434\u0456\u0441", "sport": "yoga", "survey:date": "2021-05-24"}}, {"type": "node", "id": 8773611697, "lat": 50.3869835, "lon": 30.6966153, "tags": {"addr:housenumber": "6", "addr:postcode": "02088", "addr:street": "\u0432\u0443\u043b\u0438\u0446\u044f \u0406\u0432\u0430\u043d\u0430 \u0414\u044f\u0447\u0435\u043d\u043a\u0430", "leisure": "fitness_centre", "level": "0", "name": "\u0424\u0456\u0442\u0425\u0430\u0431", "name:en": "FitHub", "name:ru": "\u0424\u0438\u0442\u0425\u0430\u0431", "name:uk": "\u0424\u0456\u0442\u0425\u0430\u0431", "opening_hours": "Mo-Fr 07:00-23:00; Sa-Su 08:00-22:00", "payment:cash": "yes", "payment:mastercard": "yes", "payment:visa": "yes", "phone": "+380 73 273 0372", "sport": "fitness;yoga;weightlifting", "start_date": "2020-03-09", "website": "https://www.facebook.com/FitHubKyivSportClub/"}}, {"type": "node", "id": 9108584518, "lat": 50.4796091, "lon": 30.6038406, "tags": {"leisure": "fitness_centre", "name": "\u0421\u0442\u0443\u0434\u0456\u044f \u0439\u043e\u0433\u0438 \"\u0410\u0441\u0430\u043d\u0430\"", "name:ru": "\u0421\u0442\u0443\u0434\u0438\u044f \u0439\u043e\u0433\u0438 \"\u0410\u0441\u0430\u043d\u0430\"", "name:uk": "\u0421\u0442\u0443\u0434\u0456\u044f \u0439\u043e\u0433\u0438 \"\u0410\u0441\u0430\u043d\u0430\"", "phone": "+380 96 313 2157"}}, {"type": "node", "id": 9128019448, "lat": 50.3842462, "lon": 30.4737566, "tags": {"leisure": "fitness_centre", "name": "\u0421\u043f\u043e\u0440\u0442\u0438\u0432\u043d\u0438\u0439 \u0437\u0430\u043b", "name:uk": "\u0421\u043f\u043e\u0440\u0442\u0438\u0432\u043d\u0438\u0439 \u0437\u0430\u043b"}}, {"type": "node", "id": 9150316361, "lat": 50.4365168, "lon": 30.5332902, "tags": {"addr:housenumber": "3", "addr:postcode": "02000", "addr:street": "\u041f\u0435\u0447\u0435\u0440\u0441\u044c\u043a\u0438\u0439 \u0443\u0437\u0432\u0456\u0437", "leisure": "fitness_centre", "name": "Urban Gym", "name:uk": "Urban Gym", "opening_hours": "Mo-Fr 07:00-22:00; Sa-Su 08:00-21:00", "phone": "+380 67 585 7979", "sport": "fitness;multi"}}, {"type": "node", "id": 9176778657, "lat": 50.3730597, "lon": 30.4675239, "tags": {"addr:housenumber": "9", "addr:postcode": "03187", "addr:street": "\u043f\u0440\u043e\u0441\u043f\u0435\u043a\u0442 \u0410\u043a\u0430\u0434\u0435\u043c\u0456\u043a\u0430 \u0413\u043b\u0443\u0448\u043a\u043e\u0432\u0430", "leisure": "fitness_centre", "name": "IceGym", "name:uk": "IceGym", "opening_hours": "Mo-Fr 08:15-21:00, Sa-Su 09:30-17:00", "phone": "+380 93 555 1373", "sport": "gym", "website": "https://www.instagram.com/ice_gym_kyiv/"}}, {"type": "node", "id": 9397348788, "lat": 50.4207308, "lon": 30.5305971, "tags": {"leisure": "fitness_centre", "name": "Workshop", "name:uk": "Workshop"}}, {"type": "node", "id": 9434948318, "lat": 50.4111698, "lon": 30.4073537, "tags": {"leisure": "fitness_centre", "name": "\u0410\u0442\u043b\u0435\u0442\u0438\u041a\u043e", "name:uk": "\u0410\u0442\u043b\u0435\u0442\u0438\u041a\u043e"}}, {"type": "node", "id": 10221314517, "lat": 50.4021944, "lon": 30.6245611, "tags": {"addr:housenumber": "9", "addr:street": "\u0432\u0443\u043b\u0438\u0446\u044f \u041a\u043d\u044f\u0436\u0438\u0439 \u0417\u0430\u0442\u043e\u043d", "contact:mobile": "+380 97 670 0053", "leisure": "fitness_centre", "name": "Sweat Factory", "name:en": "Sweat Factory", "name:uk": "Sweat Factory", "opening_hours": "Mo-Su 09:00-18:00"}}, {"type": "node", "id": 10712233307, "lat": 50.4649744, "lon": 30.5117777, "tags": {"addr:housenumber": "16/4", "addr:street": "\u0432\u0443\u043b\u0438\u0446\u044f \u0412\u0435\u0440\u0445\u043d\u0456\u0439 \u0412\u0430\u043b", "leisure": "fitness_centre", "name": "\u0421\u043f\u043e\u0440\u0442\u0438\u0432\u043d\u0438\u0439 \u043a\u043b\u0443\u0431 \u043a\u0430\u0440\u0430\u0442\u0435 \"\u0421\u0435\u043d\u0442\u0430\u0439\"", "name:en": "Karate club \"Sentai\"", "name:uk": "\u0421\u043f\u043e\u0440\u0442\u0438\u0432\u043d\u0438\u0439 \u043a\u043b\u0443\u0431 \u043a\u0430\u0440\u0430\u0442\u0435 \"\u0421\u0435\u043d\u0442\u0430\u0439\"", "opening_hours": "Su-Fr 10:00-20:00", "website": "https://sentai-club.com.ua/amp/"}}, {"type": "node", "id": 10892021214, "lat": 50.4976395, "lon": 30.442434, "tags": {"leisure": "fitness_centre", "name": "Asgard", "name:uk": "Asgard"}}, {"type": "node", "id": 10930775145, "lat": 50.5053793, "lon": 30.509093, "tags": {"leisure": "fitness_centre", "name": "Atlonica", "name:uk": "Atlonica", "opening_hours": "Mo-Su 07:00-23:00"}}, {"type": "node", "id": 10945125178, "lat": 50.5038379, "lon": 30.4599882, "tags": {"leisure": "fitness_centre", "name": "Urban Fitness.ua", "name:uk": "Urban Fitness.ua"}}, {"type": "node", "id": 10973618528, "lat": 50.4436777, "lon": 30.5226452, "tags": {"leisure": "fitness_centre", "name": "Jungle", "name:uk": "Jungle"}}, {"type": "node", "id": 10976102398, "lat": 50.4063906, "lon": 30.6128203, "tags": {"leisure": "fitness_centre"}}, {"type": "node", "id": 11007283605, "lat": 50.4460704, "lon": 30.6061086, "tags": {"leisure": "fitness_centre", "name": "Goodwill", "name:uk": "Goodwill"}}, {"type": "node", "id": 11012434414, "lat": 50.4496056, "lon": 30.4215884, "tags": {"leisure": "fitness_centre", "name": "hiitworks", "name:uk": "Hiitworks", "opening_hours": "Mo-Fr 07:00-21:00; Sa, Su 10:00-16:00", "phone": "+38 050 103-22-22"}}, {"type": "node", "id": 11016454260, "lat": 50.4226564, "lon": 30.4652088, "tags": {"leisure": "fitness_centre", "name": "Forward", "name:uk": "Forward", "website": "forwardgym.com.ua"}}, {"type": "node", "id": 11085755868, "lat": 50.4116426, "lon": 30.6523722}, {"type": "node", "id": 11206071253, "lat": 50.5050708, "lon": 30.5117737, "tags": {"leisure": "fitness_centre", "name": "Form Style", "name:uk": "Form Style"}}, {"type": "node", "id": 11222957654, "lat": 50.4627279, "lon": 30.5077201, "tags": {"check_date": "2024-10-15", "leisure": "fitness_centre", "name": "hiitworks", "name:uk": "Hiitworks"}}, {"type": "node", "id": 11238370398, "lat": 50.5117988, "lon": 30.5111881, "tags": {"leisure": "fitness_centre", "name": "Intensity", "name:uk": "Intensity"}}, {"type": "node", "id": 11238405279, "lat": 50.5125407, "lon": 30.5090899, "tags": {"leisure": "fitness_centre", "name": "Fly-Yoga Studio", "name:uk": "Fly-Yoga Studio", "sport": "yoga"}}, {"type": "node", "id": 11257735173, "lat": 50.4947598, "lon": 30.582522, "tags": {"leisure": "fitness_centre", "name": "Silver Team", "name:uk": "Silver Team"}}, {"type": "node", "id": 11294510545, "lat": 50.4118222, "lon": 30.5449866, "tags": {"leisure": "fitness_centre", "name": "Arena", "name:uk": "Arena"}}, {"type": "node", "id": 11345938381, "lat": 50.4531865, "lon": 30.4922154, "tags": {"addr:housenumber": "4/8", "addr:street": "\u041f\u0430\u0432\u043b\u0456\u0432\u0441\u044c\u043a\u0430 \u0432\u0443\u043b\u0438\u0446\u044f", "leisure": "fitness_centre", "name": "2B Fit", "name:en": "Fitness club 2BFIT", "name:uk": "Fitness club 2BFIT", "opening_hours": "Mo-Fr 07:00-22:00; Sa 08:00-20:00; Su 09:00-20:00", "phone": "+380504002277", "sport": "fitness;multi", "website": "https://www.instagram.com/2bfit.kyiv/"}}, {"type": "node", "id": 11348136900, "lat": 50.3819118, "lon": 30.4584736, "tags": {"branch": "\u0422\u0435\u0440\u0435\u043c\u043a\u0438", "brand": "Sport Life", "brand:wikidata": "Q56356180", "contact:website": "https://www.sportlife.ua/uk/clubs/kiev/teremki", "leisure": "fitness_centre", "name": "Sport Life", "name:uk": "Sport Life", "opening_hours": "Mo-Fr 07:00-22:00; Sa,Su 09:00-20:00"}}, {"type": "node", "id": 11379382804, "lat": 50.509901, "lon": 30.4183158, "tags": {"leisure": "fitness_centre", "name": "\u0415\u043d\u0434\u043e\u0440\u0444\u0456\u043d", "name:uk": "\u0415\u043d\u0434\u043e\u0440\u0444\u0456\u043d"}}, {"type": "node", "id": 11399245956, "lat": 50.421993, "lon": 30.5312438, "tags": {"leisure": "fitness_centre", "name": "Fitness by Grek", "name:uk": "Fitness by Grek", "opening_hours": "Mo-Fr 07:00-22:00; Sa, Su 09:00-21:00"}}, {"type": "node", "id": 11409134977, "lat": 50.4194967, "lon": 30.5487007, "tags": {"leisure": "fitness_centre", "name": "Nasnaga", "name:uk": "Nasnaga"}}, {"type": "node", "id": 11423144735, "lat": 50.4054455, "lon": 30.516547, "tags": {"leisure": "fitness_centre", "name": "Total fitness", "name:uk": "Total fitness"}}, {"type": "node", "id": 11423769886, "lat": 50.4270504, "lon": 30.4998826}, {"type": "node", "id": 11423801577, "lat": 50.3961637, "lon": 30.6320673, "tags": {"leisure": "fitness_centre", "level": "-1", "name": "Apollo Next", "name:uk": "Apollo Next", "opening_hours": "Mo-Fr 06:30-23:00; Sa, Su 08:00-22:00"}}, {"type": "node", "id": 11454169769, "lat": 50.3941598, "lon": 30.4901148, "tags": {"leisure": "fitness_centre", "name": "Banda crossfit box", "name:uk": "Banda crossfit box", "opening_hours": "Mo-Fr 07:00-22:00; Sa 10:00-17:00", "website": "https://crossfitbanda.com/"}}, {"type": "node", "id": 11458997703, "lat": 50.427221, "lon": 30.4998801}, {"type": "node", "id": 11458997704, "lat": 50.4270018, "lon": 30.4995977}, {"type": "node", "id": 11458997706, "lat": 50.4269772, "lon": 30.499747}, {"type": "node", "id": 11458997707, "lat": 50.4271859, "lon": 30.4996079}, {"type": "node", "id": 11458997708, "lat": 50.4272226, "lon": 30.4997555}, {"type": "node", "id": 11458997709, "lat": 50.4270082, "lon": 30.4998104}, {"type": "node", "id": 11458997710, "lat": 50.4270963, "lon": 30.4995344}, {"type": "node", "id": 11458997711, "lat": 50.427147, "lon": 30.4995611}, {"type": "node", "id": 11458997716, "lat": 50.4270384, "lon": 30.499573}, {"type": "node", "id": 11458997717, "lat": 50.427098, "lon": 30.4995811}, {"type": "node", "id": 11458997718, "lat": 50.4269765, "lon": 30.4996523}, {"type": "node", "id": 11458997719, "lat": 50.4272069, "lon": 30.4996688}, {"type": "node", "id": 11458997721, "lat": 50.4270537, "lon": 30.4998392}, {"type": "node", "id": 11486444587, "lat": 50.3498919, "lon": 30.4763396, "tags": {"leisure": "fitness_centre", "name": "MetroGym", "name:uk": "MetroGym"}}, {"type": "node", "id": 11486481330, "lat": 50.4390333, "lon": 30.5032475, "tags": {"leisure": "fitness_centre", "name": "Hiitworks", "name:uk": "Hiitworks", "opening_hours": "Mo-Fr 07:00-21:00; Sa, Su 10:00-15:00", "website": "https://hiitworks.com/"}}, {"type": "node", "id": 11607482919, "lat": 50.4728173, "lon": 30.5112997, "tags": {"addr:housenumber": "62", "addr:street": "\u0412\u043e\u043b\u043e\u0441\u044c\u043a\u0430 \u0432\u0443\u043b\u0438\u0446\u044f", "branch": "\u041f\u043e\u0434\u0456\u043b", "branch:en": "Podil", "branch:ru": "\u041f\u043e\u0434\u043e\u043b", "brand": "Sport Life", "brand:wikidata": "Q56356180", "check_date": "2024-03-16", "contact:website": "https://www.sportlife.ua/uk/clubs/kiev/podol", "fee": "yes", "leisure": "fitness_centre", "name": "Sport Life", "opening_hours": "Mo-Fr 07:00-22:00; Sa,Su 09:00-20:00", "payment:cash": "yes", "payment:mastercard": "yes", "payment:visa": "yes", "wheelchair": "no"}}, {"type": "node", "id": 11607507572, "lat": 50.4054491, "lon": 30.6378275, "tags": {"branch": "\u041f\u043e\u0437\u043d\u044f\u043a\u0438", "branch:en": "Pozniaky", "brand": "Sport Life", "brand:wikidata": "Q56356180", "contact:phone": "+380 44 364 5151", "contact:website": "https://sportlife.ua/uk/clubs/kiev/poznyaki/", "leisure": "fitness_centre", "name": "Sport Life", "opening_hours": "Mo-Fr 07:00-22:00; Sa,Su 09:00-20:00"}}, {"type": "node", "id": 11607517410, "lat": 50.4360351, "lon": 30.6235233, "tags": {"branch": "\u0414\u0430\u0440\u043d\u0438\u0446\u044c\u043a\u0430", "branch:en": "Darnytska", "branch:ru": "\u0414\u0430\u0440\u043d\u0438\u0446\u043a\u0430\u044f", "brand": "Sport Life", "brand:wikidata": "Q56356180", "check_date:opening_hours": "2023-04-27", "contact:website": "https://www.sportlife.ua/uk/clubs/kiev/leningradskaya", "leisure": "fitness_centre", "name": "Sport Life", "opening_hours": "Mo-Fr 08:00-22:00; Sa,Su 09:00-20:00", "wheelchair": "yes"}}, {"type": "node", "id": 11607520621, "lat": 50.3932852, "lon": 30.6138781, "tags": {"branch": "\u041e\u0441\u043e\u043a\u043e\u0440\u043a\u0438", "branch:en": "Osokorky", "brand": "Sport Life", "brand:wikidata": "Q56356180", "contact:website": "https://www.sportlife.ua/uk/clubs/kiev/osokorki", "leisure": "fitness_centre", "name": "Sport Life", "wheelchair": "yes"}}, {"type": "node", "id": 11659589867, "lat": 50.5127342, "lon": 30.4969838, "tags": {"leisure": "fitness_centre", "name": "Smartass", "name:uk": "Smartass", "website": "https://smartass.com.ua"}}, {"type": "node", "id": 11664550928, "lat": 50.4106007, "lon": 30.633438, "tags": {"leisure": "fitness_centre", "name": "Gift", "opening_hours": "Mo-Fr 08:30-22:00; Sa 09:00-16:00"}}, {"type": "node", "id": 11768812469, "lat": 50.5236976, "lon": 30.453953, "tags": {"addr:housenumber": "8\u0430", "addr:street": "\u041b\u0438\u0442\u043e\u0432\u0441\u044c\u043a\u0438\u0439 \u043f\u0440\u043e\u0441\u043f\u0435\u043a\u0442", "leisure": "fitness_centre", "name:ru": "\u0421\u043f\u0430\u0440\u0442\u0430, \u0444\u0438\u0442\u043d\u0435\u0441-\u043a\u043b\u0443\u0431,"}}, {"type": "node", "id": 11833012370, "lat": 50.3916928, "lon": 30.6493811, "tags": {"leisure": "fitness_centre", "level": "1", "name": "Best Body", "phone": "+380977619042", "website": "https://bestbody.com.ua/"}}, {"type": "node", "id": 11878673227, "lat": 50.5217738, "lon": 30.6140226, "tags": {"addr:housenumber": "12", "addr:postcode": "02138", "addr:street": "\u0432\u0443\u043b\u0438\u0446\u044f \u041a\u043e\u0441\u0442\u044f\u043d\u0442\u0438\u043d\u0430 \u0414\u0430\u043d\u044c\u043a\u0435\u0432\u0438\u0447\u0430", "leisure": "fitness_centre", "name": "Gladiator Gym", "opening_hours": "Mo-Fr 07:00-22:00", "sport": "fitness"}}, {"type": "node", "id": 11928347213, "lat": 50.3821277, "lon": 30.4782119, "tags": {"contact:instagram": "https://www.instagram.com/planet_fitness_kyiv", "leisure": "fitness_centre", "name": "Planet Fitness", "opening_hours": "Mo-Fr 07:00-22:00; Sa,Su 08:00-19:00"}}, {"type": "node", "id": 12003270174, "lat": 50.4110601, "lon": 30.5226609, "tags": {"brand": "Appollo", "contact:website": "https://apollo.online/clubs-post/apollo-next-025-trcz-ocean-plaza/", "leisure": "fitness_centre", "level": "-1;0", "name": "Appollo", "name:ru": "\u0410\u043f\u043e\u043b\u043b\u043e", "opening_hours": "Mo-Fr 06:30-23:00; Sa, Su 08:00-22:00", "sauna": "no", "swimming_pool": "no", "toilets": "yes", "toilets:access": "customers"}}, {"type": "node", "id": 12154746060, "lat": 50.4328979, "lon": 30.5067589, "tags": {"access": "yes", "addr:housenumber": "4", "addr:street": "\u041a\u043e\u0440\u043e\u043b\u0435\u043d\u043a\u0456\u0432\u0441\u044c\u043a\u0430 \u0432\u0443\u043b\u0438\u0446\u044f", "air_conditioning": "yes", "check_date": "2024-11-01", "fee": "yes", "leisure": "fitness_centre", "level": "1", "name": "Smartass Gym&Soul", "operator": "Smartass", "payment:cash": "yes", "payment:credit_cards": "yes", "payment:debit_cards": "yes", "website": "https://smartass.com.ua", "wheelchair": "yes"}}, {"type": "node", "id": 12208873108, "lat": 50.5074912, "lon": 30.5093307, "tags": {"leisure": "fitness_centre", "name": "Malibu Fit"}}, {"type": "node", "id": 12282062397, "lat": 50.4580313, "lon": 30.4084439, "tags": {"addr:housenumber": "67", "addr:postcode": "02000", "addr:street": "\u0411\u0435\u0440\u0435\u0441\u0442\u0435\u0439\u0441\u044c\u043a\u0438\u0439 \u043f\u0440\u043e\u0441\u043f\u0435\u043a\u0442", "leisure": "fitness_centre", "name": "Legion Fit&Fight Centre", "sport": "gymnastics"}}, {"type": "way", "id": 23801583, "nodes": [257913739, 257913740, 257913741, 257913743, 257913739], "tags": {"addr:housenumber": "33", "addr:street": "\u0432\u0443\u043b\u0438\u0446\u044f \u0413\u0435\u0440\u043e\u0457\u0432 \u0414\u043d\u0456\u043f\u0440\u0430", "building": "yes", "building:levels": "2", "leisure": "fitness_centre", "name": "\u0424\u0456\u0442\u043d\u0435\u0441-\u043a\u043b\u0443\u0431 FitCurves", "name:ru": "\u0424\u0438\u0442\u043d\u0435\u0441-\u043a\u043b\u0443\u0431 FitCurves", "name:uk": "\u0424\u0456\u0442\u043d\u0435\u0441-\u043a\u043b\u0443\u0431 FitCurves"}}, {"type": "way", "id": 73368163, "nodes": [870125304, 3823387006, 870125350, 870125389, 870125327, 870125304], "tags": {"building": "yes", "building:levels": "2", "leisure": "fitness_centre", "name": "\u0424\u0438\u0442\u043b\u0430\u0439\u043d", "name:uk": "\u0424\u0438\u0442\u043b\u0430\u0439\u043d", "wheelchair": "no"}}, {"type": "way", "id": 112985422, "nodes": [1282779011, 1282901212]}, {"type": "way", "id": 114656208, "nodes": [1282901212, 1282829535, 1282829508, 1282829519, 1282829501, 1282779011]}, {"type": "way", "id": 127992897, "nodes": [1415361841, 1415361845, 1415361792, 1415361777, 1415361841], "tags": {"building": "yes", "leisure": "fitness_centre", "sport": "tennis"}}, {"type": "way", "id": 152202529, "nodes": [1534232058, 1534232066, 4084840389, 1534232061, 1534232055, 1534232058], "tags": {"addr:housenumber": "41-\u0410", "addr:postcode": "01033", "addr:street": "\u0416\u0438\u043b\u044f\u043d\u0441\u044c\u043a\u0430 \u0432\u0443\u043b\u0438\u0446\u044f", "building": "yes", "check_date": "2024-11-01", "leisure": "fitness_centre", "name": "Smartass", "phone": "+380 95 186 1576", "website": "https://smartass.com.ua", "wheelchair": "no"}}, {"type": "way", "id": 158474166, "nodes": [1706674248, 1706674244, 11085755868, 1706674257, 1706674266, 1706674273, 1706674223, 1706674261, 1706674263, 1706674239, 1706674254, 1706674253, 1706674248], "tags": {"building": "yes", "building:levels": "1", "leisure": "fitness_centre", "name": "Crossfit Banda III", "name:uk": "Crossfit Banda III", "opening_hours": "Mo-Su 07:00-22:00", "sport": "crossfit"}}, {"type": "way", "id": 164311758, "nodes": [1759550373, 1759550359, 1759550348, 1759550377, 1759550383, 1759550382, 1759550384, 1759550373], "tags": {"addr:housenumber": "16", "addr:street": "\u041f\u0430\u0440\u043a\u043e\u0432\u0430 \u0434\u043e\u0440\u043e\u0433\u0430", "building": "yes", "leisure": "fitness_centre"}}, {"type": "way", "id": 308499480, "nodes": [3137773347, 3137773348, 3137773358, 3137773356, 3137773349, 3137773351, 3137773347], "tags": {"building": "yes", "contact:instagram": "https://www.instagram.com/atlantgymkiev/", "contact:phone": "+380 98 777 1333", "contact:website": "https://atlantgym.business.site", "leisure": "fitness_centre", "name": "\u0410\u0442\u043b\u0430\u043d\u0442 \u0416\u0438\u043c", "name:en": "Atlant Gym", "name:uk": "\u0410\u0442\u043b\u0430\u043d\u0442 \u0416\u0438\u043c", "opening_hours": "Mo-Fr 08:30-17:30; Sa 09:00-16:00; Su off"}}, {"type": "way", "id": 422181667, "nodes": [4219006337, 4219006339, 4806776305, 4219006344, 4219006340, 4219006337], "tags": {"building": "yes", "building:levels": "2", "leisure": "fitness_centre", "name": "UNIT.gym", "name:uk": "UNIT.gym", "opening_hours": "Mo-Fr 07:00-21:00, Sa 08:00-20:00"}}, {"type": "way", "id": 529054534, "nodes": [5140116352, 5140116351, 5140116350, 5140116349, 5140116352], "tags": {"leisure": "fitness_centre"}}, {"type": "way", "id": 570303063, "nodes": [5482931760, 5482931761, 5482931762, 5482931764, 8177019772, 8177019773, 5482931766, 7179117881, 5482931767, 5482931760], "tags": {"addr:housenumber": "14-\u041a", "addr:street": "\u0414\u043d\u0456\u043f\u0440\u043e\u0432\u0441\u044c\u043a\u0430 \u043d\u0430\u0431\u0435\u0440\u0435\u0436\u043d\u0430", "building": "yes", "building:levels": "2", "leisure": "fitness_centre", "name": "\"DOG & Grand CrossFit\"", "name:uk": "\"DOG & Grand CrossFit\"", "opening_hours": "07:00-23:00", "phone": "+380 44 490 6070"}}, {"type": "way", "id": 1234543854, "nodes": [11458997703, 11423769886, 11458997721, 11458997709, 11458997706, 11458997718, 11458997704, 11458997716, 11458997717, 11458997710, 11458997711, 11458997707, 11458997719, 11458997708, 11458997703], "tags": {"building": "yes", "leisure": "fitness_centre"}}, {"type": "relation", "id": 1599124, "members": [{"type": "way", "ref": 112985422, "role": "outer"}, {"type": "way", "ref": 114656208, "role": "outer"}], "tags": {"brand": "Sport Life", "brand:wikidata": "Q56356180", "building": "yes", "building:levels": "2", "leisure": "fitness_centre", "name": "Sport Life \u0431\u0430\u0441\u0435\u0439\u043d", "name:uk": "Sport Life \u0431\u0430\u0441\u0435\u0439\u043d", "roof:shape": "flat", "sport": "swimming", "type": "multipolygon"}}]}